country_code,found_country,longitude,address,latitude,country_name,used,continent,timestamp,alt_addr,no_result
GB,True,-0.1876332,"Kensington,Palace,London,England",51.505099,England,0,Europe,,,
GB,True,-1.2700819,"Osborne House,Isle of Wight,England",50.7505772,England,0,Europe,,,
GB,True,-0.5982911,"Royal Mausoleum,Frogmore,Berkshire,England",51.4740348,England,0,Europe,,,
DE,True,10.4478313,"Schloss Rosenau,Near Coburg,Germany",51.1638175,Germany,0,Europe,,,
GB,True,-0.6040419,"Windsor Castle,Berkshire,England",51.4837886,England,0,Europe,,,
GB,True,-0.597552,"Royal Masoleum,Frogmore,Windsor,England",51.4756084,England,0,Europe,,,
GB,True,-0.1438839,"Buckingham,Palace,London,England",51.4978676,England,0,Europe,,,
GB,True,-0.1430045,"Throne Room,Buckingham Palac,England",51.5008349,England,0,Europe,,,
DE,True,8.5085855,"Friedrichshof,Near,Kronberg,Taunus",50.1796561,Germany,0,Europe,,,
DE,True,13.0435766,"Friedenskirche,Potsdam",52.4012197,Germany,0,Europe,,,
GB,True,-0.6040419,"Windsor,Berkshire,England",51.4837886,England,0,Europe,,,
DE,True,8.651177,"Darmstadt,,,Germany",49.872775,Germany,0,Europe,,,
GB,True,-0.1373398,"Schomberg House,Pall Mall,London,England",51.5052863,England,0,Europe,,,
GB,True,-0.3355844,"Frogmore,,,England",51.7190385,England,0,Europe,,,
GB,True,-0.6931739,"Bagshot Park,Surrey",51.3713707,United Kingdom,0,Europe,,,
FR,True,7.0134418,Cannes,43.5515198,France,0,Europe,,,
GB,True,-0.1329998,"Bantridge Park,Balcombe,Sussex,England",51.0573017,England,0,Europe,,,
DK,True,12.5700724,"Yellow Palace,Copenhagen,Denmark",55.6867243,Denmark,0,Europe,,,
GB,True,0.4318137,"Sandringham,,Norfolk,England",52.8427652,England,0,Europe,,,
GB,True,-0.6040419,"St. George Chap.,Windsor,Berkshire,England",51.4837886,England,0,Europe,,,
GB,True,-0.5944637,"Frogmore House,Windsor,Berkshire,England",51.4743933,England,0,Europe,,,
GB,True,-0.1360297,"Marlborough Hse,London,England",51.504975,England,0,Europe,,,
GB,True,0.4318137,"Sandringham,Norfolk,England",52.8427652,England,0,Europe,,,
GB,True,-1.031873,"Windsor Castle,St. George Chap.,Berkshire,England",51.4534889,England,0,Europe,,,
GB,True,-0.0953269,"Marlborough,House,London,England",51.5704927,England,0,Europe,,,
GB,True,-0.1547569,"Portman Square,London,England",51.516013,England,0,Europe,,,
GB,True,-0.8946441,"Coppins,Iver,Bucks,England",51.7834994,England,0,Europe,,,
GB,True,-0.1277653,"London,England",51.5074456,England,0,Europe,,,
DE,True,13.0158969,"Neues Palais,Potsdam,Germany",52.4013836,Germany,0,Europe,,,
DE,True,13.0435766,"Friedenskirche,Potsdam,Germany",52.4012197,Germany,0,Europe,,,
DE,True,13.3951309,"Berlin,Germany",52.5173885,Germany,0,Europe,,,
NL,True,5.3445416,"Haus Doorn,Netherlands",52.030836,Netherlands,0,Europe,,,
DE,True,9.0376388,Arolsen,51.3649894,Germany,0,Europe,,,
AT,True,11.5261028,Tyrol,47.223193,Austria,0,Europe,,,
GB,True,-1.2703607,"Whippingham Ch.,Isle of Wight,England",50.740502,England,0,Europe,,,
CH,True,6.6327025,Lausanne,46.5218269,Switzerland,0,Europe,,,
GB,True,-0.6040419,"St. George's,Chapel,Windsor Castle,England",51.4837886,England,0,Europe,,,
GB,True,-0.3008938,"White Lodge,Richmond Park,Surrey,England",51.3368965,England,0,Europe,,,
FR,True,2.3483915,"Paris,,,France",48.8534951,France,0,Europe,,,
GB,True,-0.597552,"Frogmore,Windsor,Berkshire,England",51.4756084,England,0,Europe,,,
GB,True,0.5162681,"York Cottage,Sandringham,Norfolk,England",52.8262326,England,0,Europe,,,
GB,True,-0.6040419,"St. George Chap.,,Windsor,England",51.4837886,England,0,Europe,,,
GB,True,-1.5287425,"Harewood House,Yorkshire,,England",53.8948932,England,0,Europe,,,
GB,True,-3.6957832,"Morven,,,Scotland",58.233703,Scotland,0,Europe,,,
GB,True,0.4625821,"Wood Farm,Wolferton,Norfolk,England",52.8293207,England,0,Europe,,,
GB,True,0.4318137,"Sandringham,Norfolk,,England",52.8427652,England,0,Europe,,,
RU,True,30.4069376,"Tsarskoye Selo,Pushkin,,Russia",59.7205467,Russian Federation,0,Europe,,,
RU,True,60.6007886,"Ekaterinburg,,,Russia",56.8382071,Russian Federation,0,Europe,,,
RU,True,97.7453061,"Livadia,Crimea,Near Yalta,Russia",64.6863136,Russian Federation,0,Europe,,,
RU,True,30.316229,"Cathedral of the,Fortress of P&P,St. Petersburg,Russia",59.938732,Russian Federation,0,Europe,,,
DK,True,12.5700724,"Copenhagen,,,Denmark",55.6867243,Denmark,0,Europe,,,
RU,True,97.7453061,"Alexander Palace,Tsarskoe Selo,,Russia",64.6863136,Russian Federation,0,Europe,,,
RU,True,30.2046418,"Peterhof,Near,St. Petersburg,Russia",59.9372321,Russian Federation,0,Europe,,,
GB,True,-0.1277653,",,London,England",51.5074456,England,0,Europe,,,
GB,True,-0.1330007,"17 Bruton St.,London,W1,England",51.5242031,England,0,Europe,,,
GB,True,-3.0019917,"Glamis Castle,,Angus,Scotland",56.620378,Scotland,0,Europe,,,
GR,True,19.9261335,"Isle of Kerkira,Mon Repos,Corfu,Greece",39.6062313,Greece,0,Europe,,,
GB,True,-2.9690906,"Buckingham,Palace,Music Room,England",53.4011337,England,0,Europe,,,
GB,True,0.2605632,"Clarence House,St. James,,England",51.1323289,England,0,Europe,,,
GB,True,-1.2649062,",,,England",52.5310214,England,0,Europe,,,
GB,True,-0.1438839,"Belgian Suite,Buckingham,Palace,England",51.4978676,England,0,Europe,,,
GB,True,-0.1743245,"St. Mary's Hosp.,Paddington,London,England",51.517434,England,0,Europe,,,
GB,True,-0.1438839,"Music Room,Buckingham,Palace,England",51.4978676,England,0,Europe,,,
GB,True,-0.1744856,"St. Marys Hosp.,Paddington,London,England",51.5161629,England,0,Europe,,,
GB,True,0.5059864,"Park House,Sandringham,Norfolk,England",52.8278528,England,0,Europe,,,
GB,True,1.5342585,"Sandringham,Church,Norfolk,England",52.7099372,England,0,Europe,,,
GR,True,23.7348324,"Athens,Greece",37.9755648,Greece,0,Europe,,,
GB,True,-0.1876332,"Kensington,Palace,,England",51.505099,England,0,Europe,,,
GB,True,-0.1543078,"3 Belgrave Sq.,,England",51.5001785,England,0,Europe,,,
US,True,-100.445882,",,,U.S.A.",39.7837304,USA,0,North America,,,
DK,True,12.5671103,"Charlottenlund,Denmark",55.7552973,Denmark,0,Europe,,,
DE,True,13.0591397,"Potsdam,Germany",52.4009309,Germany,0,Europe,,,
DE,True,8.6820917,"Frankfurt,Germany",50.1106444,Germany,0,Europe,,,
GR,True,23.9290924,"Tatoi,Near Athens,Greece",37.8806976,Greece,0,Europe,,,
RU,True,97.7453061,"Alapayevsk,Ural Mts.,,Russia",64.6863136,Russian Federation,0,Europe,,,
DE,True,13.0392969,"Hesse-Darmstadt,Palace,,Germany",52.4043474,Germany,0,Europe,,,
GB,True,-0.0978552,"Hadley Common,Hertfordshire,England",51.8400523,England,0,Europe,,,
GB,True,-0.6040419,"Private Chapel,Windsor Castle,Berkshire,England",51.4837886,England,0,Europe,,,
GB,True,-2.127567,"Near,Wolverhampton,England",52.5847651,England,0,Europe,,,
US,True,-82.3184486,Barnwell Church,35.4470624,United States,0,North America,,,
RU,True,30.316229,"St. Petersburg,,,Russia",59.938732,Russian Federation,0,Europe,,,
CH,True,8.5410422,"Zurich,,,Switzerland",47.3744489,Switzerland,0,Europe,,,
GB,True,0.5375244,"Eastwell Park,Kent,England",51.2786846,England,0,Europe,,,
RO,True,25.5481496,"Castle Pelesch,Sinaia,Romania",45.345476,Romania,0,Europe,,,
MT,True,14.3951627,Malta,35.9311442,Malta,0,Europe,,,
IE,True,-8.7305427,"Donegal Bay,County Sligo,Ireland",54.1929861,Ireland,0,Europe,,,
GB,True,-0.5092749,"Coppins,,England",51.5258257,England,0,Europe,,,
GB,True,0.1281046,"Thatched House,Lodge,,England",51.3114688,England,0,Europe,,,
GB,True,-0.3163099,"Thatched House,Lodge,Richmond Park,England",51.4144119,England,0,Europe,,,
GB,True,-0.0896031,"Kings College,Hospital,Denmark Hill",51.468043,United Kingdom,0,Europe,,,
DE,True,13.0591397,Potsdam,52.4009309,Germany,0,Europe,,,
GB,True,-0.1384107,"Clarence House,London,,England",51.5039837,England,0,Europe,,,
GB,True,-0.6939678,Bagshot Park,51.3674201,United Kingdom,0,Europe,,,
SE,True,18.0710935,"Stockholm,Sweden",59.3251172,Sweden,0,Europe,,,
SE,True,12.703706,Helsingborg,56.0442098,Sweden,0,Europe,,,
CN,True,113.9777082,"Royal Cemetery,Haga Castle Park",22.4056056,China,0,Asia,,,
GB,True,-2.1163757,"Mar Lodge,Braemar,Aberdeenshire,England",57.05529,England,0,Europe,,,
FR,True,2.3483915,Paris,48.8534951,France,0,Europe,,,
GB,True,0.4673371,"Castle Rising,Norfolk,England",52.7969167,England,0,Europe,,,
GB,True,1.3784493,"Grey Friars,Church,London,England",51.2189247,England,0,Europe,,,
GB,True,-1.2952483,"Norfolk-House,St. James Square,London,England",50.6995104,England,0,Europe,,,
GB,True,-0.6040419,"Windsor Castle,Windsor,Berkshire,England",51.4837886,England,0,Europe,,,
GB,True,-0.6040419,"St. George Chap.,Windsor Castle,Berkshire,England",51.4837886,England,0,Europe,,,
DE,True,12.847677,Mirow,53.2851568,Germany,0,Europe,,,
GB,True,-0.2950549,Kew Palace,51.4838317,United Kingdom,0,Europe,,,
GB,True,-0.6040419,"St. George Chap.,Windsor,,England",51.4837886,England,0,Europe,,,
GB,True,0.0810511,"Buckingham House,,London,England",51.4404664,England,0,Europe,,,
GB,True,-3.237657,"Sidmouth,Devon,,England",50.6790033,England,0,Europe,,,
DE,True,10.964561,Coburg,50.2582226,Germany,0,Europe,,,
GB,True,-0.5944637,"Frogmore House,Windsor,,England",51.4743933,England,0,Europe,,,
DE,True,11.0377839,Thuringia,50.9014721,Germany,0,Europe,,,
FR,True,2.3483915,"Paris,France",48.8534951,France,0,Europe,,,
US,True,-71.0717763,Carlton House,42.3531675,United States,0,North America,,,
GB,True,-0.3980983,"Claremont House,Esher,Surrey,England",51.3660701,England,0,Europe,,,
GB,True,-0.6067923,"St George Chapel,Windsor,England",51.4836506,England,0,Europe,,,
RU,True,30.311686,"Fortress of,Peter and Paul,,Russia",59.9500646,Russian Federation,0,Europe,,,
RU,True,42.44,"Abbas Tuman,Caucasus,Russia",43.345,Russian Federation,0,Europe,,,
RU,True,37.6055105,"Peter and Paul,Cathedral,,Russia",55.7445243,Russian Federation,0,Europe,,,
RU,True,56.2318528,"Perm,,,Russia",58.0108531,Russian Federation,0,Europe,,,
CA,True,-79.3250179,"East Toronto,Ontario,,Canada",43.6901603,Canada,0,North America,,,
CA,True,-79.4245953,"York Cemetery,Toronto,Ontario,Canada",43.7642978,Canada,0,North America,,,
CH,True,8.2319736,Switzerland,46.7985624,Switzerland,0,Europe,,,
GB,True,-0.1519627,"27 Welbech St.,Marylebone,London,England",51.5196374,England,0,Europe,,,
GB,True,-3.074175,Birkhall,57.028846,United Kingdom,0,Europe,,,
GB,True,-0.1423506,"St. James Palace,London,England",51.4987815,England,0,Europe,,,
GB,True,-0.1410021,"Rutland House,Arlington St.,London,England",51.5071834,England,0,Europe,,,
GB,True,0.0810511,"Buckingham House,London,England",51.4404664,England,0,Europe,,,
GB,True,-0.1345942,"Buckingham House,St. James Park,London,England",51.4992816,England,0,Europe,,,
DE,True,9.1895147,Ludwigsburg,48.8953937,Germany,0,Europe,,,
GB,True,-0.0955147,Buckingham House,51.5694535,United Kingdom,0,Europe,,,
GB,True,0.2605632,"Clarence House,St. James",51.1323289,United Kingdom,0,Europe,,,
DE,True,8.5485912,"Frankfurt,-am-Main",50.0958411,Germany,0,Europe,,,
DE,True,9.675882,Herrenhausen,52.407334,Germany,0,Europe,,,
GB,True,-0.1492301,"Gloucester House,Piccadilly,London,England",51.5039979,England,0,Europe,,,
GB,True,-0.1991229,"Vicarage Place,Kensington",51.4989948,United Kingdom,0,Europe,,,
GB,True,-0.6040419,"Royal Lodge,Windsor,Berkshire,England",51.4837886,England,0,Europe,,,
GB,True,-0.6040419,"Augusta Lodge,Windsor,Berkshire,England",51.4837886,England,0,Europe,,,
DE,True,10.4153029,Meiningen,50.56761,Germany,0,Europe,,,
GB,True,-0.2537791,"Near Stanmore,Middlesex,England",51.5460558,England,0,Europe,,,
GB,True,-0.6040419,"St. George Chap.,Windsor,England",51.4837886,England,0,Europe,,,
DE,True,9.7288366,"Furstenhof,Hanover",52.3716259,Germany,0,Europe,,,
GB,True,-0.1377553,St. James Palac,51.5045329,United Kingdom,0,Europe,,,
GB,True,-0.3370444,Bushy Park,51.4168626,United Kingdom,0,Europe,,,
SE,True,15.4716503,Gottorp,58.5649996,Sweden,0,Europe,,,
DK,True,12.5930781,Amalienborg,55.6839601,Denmark,0,Europe,,,
DK,True,12.0819247,"Roskilde,Denmark",55.6433478,Denmark,0,Europe,,,
DE,True,9.4978479,Cassel,51.3157833,Germany,0,Europe,,,
DK,True,12.5523479,Bernstorff,55.7584315,Denmark,0,Europe,,,
DK,True,12.5700724,"Copenhagen,Denmark",55.6867243,Denmark,0,Europe,,,
CO,True,-74.0747515,Salonika,4.631736,Colombia,0,South America,,,
GR,True,23.7598529,Tatoi,38.0687218,Greece,0,Europe,,,
CH,True,6.6327025,"Lausanne,Switzerland",46.5218269,Switzerland,0,Europe,,,
DE,True,9.309977,"Schloss,Heiligenberg",47.8168027,Germany,0,Europe,,,
GB,True,-1.2649062,England,52.5310214,England,0,Europe,,,
IT,True,13.3524434,"Palermo,Italy",38.1112268,Italy,0,Europe,,,
BE,True,2.919496,Ostende,51.2258565,Belgium,0,Europe,,,
BE,True,4.3487134,"Laeken,Belgium",50.883392,Belgium,0,Europe,,,
DE,True,9.7385532,"Hanover,Germany",52.3744779,Germany,0,Europe,,,
DE,True,9.7385532,Hanover,52.3744779,Germany,0,Europe,,,
DE,True,10.7300263,Hildburghausen,50.4266327,Germany,0,Europe,,,
AT,True,13.8003048,"Gmunden,Austria",47.9185855,Austria,0,Europe,,,
AT,True,13.8003048,Gmunden,47.9185855,Austria,0,Europe,,,
GB,True,-3.420704,"Caernarvon,Castle,Wales",51.753359,Wales,0,Europe,,,
GB,True,-2.456937,"Berkeley Castle,Gloucestershire",51.6888596,United Kingdom,0,Europe,,,
GB,True,-2.2467498,"Gloucester,Cathedral",51.8673377,United Kingdom,0,Europe,,,
DE,True,9.2165039,"Sigmaringen,Germany",48.0869139,Germany,0,Europe,,,
RO,True,25.5481496,"Sinaia,Romania",45.345476,Romania,0,Europe,,,
GB,True,0.1628335,"Barnwell Church,,England",52.2161562,England,0,Europe,,,
GB,True,-0.1744856,"St. Marys Hosp.,Paddington,England",51.5161629,England,0,Europe,,,
,True,15.3381061,Czechoslovakia,49.7439047,Czech Republic,0,,,,
GB,True,-0.1423506,"Chapel Royal,St. James Palace,England",51.4987815,England,0,Europe,,,
DE,True,9.6972057,"Herrenhausen,Palace,Hannover,Germany",52.3909854,Germany,0,Europe,,,
GB,True,-0.1319441,"Westminster,Abbey,London,England",51.4981579,England,0,Europe,,,
GB,True,-0.1057857,"Leicester-House,,London,England",51.4676401,England,0,Europe,,,
NL,True,4.3113461,The Hague,52.0799838,Netherlands,0,Europe,,,
GB,True,-0.1450325,"Cavendish Square,,London,England",51.5164887,England,0,Europe,,,
GB,True,-0.1423506,"St. James Palace,,,England",51.4987815,England,0,Europe,,,
GB,True,-0.1057857,Leicester House,51.4676401,United Kingdom,0,Europe,,,
GB,True,-0.1277653,"London,,,England",51.5074456,England,0,Europe,,,
DE,True,8.9188179,Hanau,50.1354291,Germany,0,Europe,,,
GB,True,-0.1057857,"Leicester House,London,England",51.4676401,England,0,Europe,,,
DK,True,12.5800406,"Christiansborg,Denmark",55.6756505,Denmark,0,Europe,,,
DE,True,10.7014435,Gotha,50.9494849,Germany,0,Europe,,,
GB,True,-0.1334353,Norfolk House,51.5073666,United Kingdom,0,Europe,,,
MC,True,7.4276832,Monaco,43.7323492,Monaco,0,Europe,,,
GB,True,-0.0158088,Gloucester House,53.4701954,United Kingdom,0,Europe,,,
DE,True,10.081052,Celle,52.624056,Germany,0,Europe,,,
DE,True,9.7385532,"Leineschloss,Osnabruck,Hanover,Germany",52.3744779,Germany,0,Europe,,,
DE,True,8.047635,Osnabruck,52.2719595,Germany,0,Europe,,,
DE,True,9.675882,"Moved in 1957 to,Herrenhausen",52.407334,Germany,0,Europe,,,
DE,True,13.3951309,"Monbijou Palace,,Berlin,Germany",52.5173885,Germany,0,Europe,,,
DK,True,12.5800406,Christiansborg,55.6756505,Denmark,0,Europe,,,
PL,True,17.0653695,Dolzig,51.9866,Poland,0,Europe,,,
GB,True,-1.2703607,"Whippingham Ch.,Isle of Wight,,England",50.740502,England,0,Europe,,,
PT,True,-8.1353519,",,Portugal",39.6621648,Portugal,0,Europe,,,
DE,True,6.4107342,"Aachen,West Germany",51.132302,Germany,0,Europe,,,
DE,True,12.0763533,Greiz,50.7783814,Germany,0,Europe,,,
DE,True,14.5466945,"Frankfurt an der,Oder",52.3365359,Germany,0,Europe,,,
ES,True,2.0833386,"San Ildefonso,,Spain",41.3632004,Spain,0,Europe,,,
ES,True,-3.703507,"Madrid,,Spain",40.416782,Spain,0,Europe,,,
FR,True,7.0134418,"Cannes,France",43.5515198,France,0,Europe,,,
PT,True,-9.3901368,"Villa Mar y Sol,Estoril,Portugal",38.7095707,Portugal,0,Europe,,,
GB,True,0.4318137,"Appleton House,Sandringham,Norfolk,England",52.8427652,England,0,Europe,,,
NO,True,8.7876653,Norway,61.1529386,Norway,0,Europe,,,
NO,True,8.7876653,"Skaugum,Near Oslo,Norway",61.1529386,Norway,0,Europe,,,
SE,True,18.0672982,"Drottningholm,Near Stockholm,Sweden",59.3294531,Sweden,0,Europe,,,
DE,True,8.4034195,Karlsruhe,49.0068705,Germany,0,Europe,,,
IT,True,12.4829321,"Rome,Italy",41.8933203,Italy,0,Europe,,,
DE,True,7.9544958,Biebrich,50.3030289,Germany,0,Europe,,,
RO,True,25.5481496,"Pelesch,Sinaia,Romania",45.345476,Romania,0,Europe,,,
DE,True,10.9551991,"Blankenburg,Harz,Germany",51.7902676,Germany,0,Europe,,,
ES,True,-3.703507,"Madrid,Spain",40.416782,Spain,0,Europe,,,
GR,True,23.772085,Psychiko,38.0130854,Greece,0,Europe,,,
IT,True,12.3345898,"Venice,Italy",45.4371908,Italy,0,Europe,,,
RS,True,20.4456588,Belgrade,44.8153318,Serbia,0,Europe,,,
FR,True,2.7015872,"Fontainebleau,France",48.4049375,France,0,Europe,,,
FR,True,2.1022294,"Germain-en-Laye,France",48.9994177,France,0,Europe,,,
FR,True,2.3627508,"St. Denis,France",48.9383732,France,0,Europe,,,
DE,True,13.3951309,Berlin,52.5173885,Germany,0,Europe,,,
DE,True,13.0697772,"Marmorpalais,Potsdam",52.4128012,Germany,0,Europe,,,
DE,True,10.5348215,Wolfenbuttel,52.1625283,Germany,0,Europe,,,
PL,True,14.5509623,Stettin,53.4301818,Poland,0,Europe,,,
DE,True,13.3045162,Charlottenburg,52.5050484,Germany,0,Europe,,,
GB,True,-0.4422764,"Oatlands Park,Weybridge,Surrey,England",51.3753412,England,0,Europe,,,
DE,True,13.866575,Prenzlau,53.3167,Germany,0,Europe,,,
NL,True,4.3113461,"Oraniensaal,The Hague",52.0799838,Netherlands,0,Europe,,,
FI,True,25.9209164,"Near Borga,Finland,Finland",63.2467777,Finland,0,Europe,,,
GE,True,44.8014495,Tiflis,41.6934591,Georgia,0,Asia,,,
GB,True,-4.9207686,Pembroke Castle,51.6772486,United Kingdom,0,Europe,,,
GB,True,-0.5652554,Berkhamsted,51.7607271,United Kingdom,0,Europe,,,
CH,True,8.4386308,"Kussnacht,Switzerland",47.08385,Switzerland,0,Europe,,,
BE,True,4.3487134,Laeken,50.883392,Belgium,0,Europe,,,
BE,True,4.351697,"Brussels,Belgium",50.8465573,Belgium,0,Europe,,,
BE,True,4.368987,"Near Brussels,Belgium",50.8453219,Belgium,0,Europe,,,
BE,True,4.3476384,"Chateau de,Stuyvenberg",50.888955,Belgium,0,Europe,,,
SE,True,18.0395884,Haga Castle,59.3634097,Sweden,0,Europe,,,
DE,True,10.000654,"Hamburg,Germany",53.550341,Germany,0,Europe,,,
DK,True,12.5588664,"Charlottenlund,Nr: Copenhagen,Denmark",55.7003305,Denmark,0,Europe,,,
DE,True,11.4148038,Schwerin,53.6288297,Germany,0,Europe,,,
DK,True,12.5700724,Copenhagen,55.6867243,Denmark,0,Europe,,,
DK,True,12.5588664,"Sorgenfri,Nr: Copenhagen,Denmark",55.7003305,Denmark,0,Europe,,,
DE,True,11.5753822,"Munich,Germany",48.1371079,Germany,0,Europe,,,
DE,True,11.5766146,"Theatinerkirche,Munich,Germany",48.1420299,Germany,0,Europe,,,
DE,True,8.4673098,"Mannheim,Germany",49.4892913,Germany,0,Europe,,,
DE,True,11.5032919,"Schloss,Nymphenburg,Germany",48.1583251,Germany,0,Europe,,,
DE,True,11.5766146,Theatinerkirche,48.1420299,Germany,0,Europe,,,
NL,True,4.3113461,"The Hague,Netherlands",52.0799838,Netherlands,0,Europe,,,
NL,True,5.0660616,Tilburg,51.5856184,Netherlands,0,Europe,,,
RU,True,30.316229,"St. Petersburg,Russia",59.938732,Russian Federation,0,Europe,,,
NL,True,6.2813956,Het Loo,51.9713719,Netherlands,0,Europe,,,
DE,True,11.5879359,Jena,50.9281717,Germany,0,Europe,,,
NL,True,6.5678847,"Soetdijk,Palace,Netherlands",53.2180116,Netherlands,0,Europe,,,
DE,True,13.3706436,Brunn,53.6711367,Germany,0,Europe,,,
DE,True,12.3117596,"Schloss,Wildenwart",47.8280984,Germany,0,Europe,,,
DE,True,11.5753822,"Dom Church,Munich,Germany",48.1371079,Germany,0,Europe,,,
HU,True,16.9342165,"Sarvar,Hungary",47.2517426,Hungary,0,Europe,,,
GB,True,-0.1261997,"Whitehall,,England",51.5028139,England,0,Europe,,,
GB,True,-0.1430045,"Hampton Court,Palace,England",51.5008349,England,0,Europe,,,
GB,True,-0.2537791,"Syon House,Brentford,Middlesex,England",51.5460558,England,0,Europe,,,
GB,True,-0.419637,"Berkeley House,,England",51.3330794,England,0,Europe,,,
FR,True,2.0942792,"St. Germain-,en-Laye,France",48.8990413,France,0,Europe,,,
GB,True,-2.1453953,"Cranbourne Lodge,Near,Windsor,England",53.4534802,England,0,Europe,,,
GB,True,-0.2292103,"Worcester House,London,England",51.4477594,England,0,Europe,,,
GB,True,-0.1260237,Whitehall,51.5032603,United Kingdom,0,Europe,,,
GB,True,-0.3088135,"Richmond Palace,,England",51.4608257,England,0,Europe,,,
GB,True,-0.3088135,"Richmond Palace,London,England",51.4608257,England,0,Europe,,,
GB,True,-0.1423506,"St. James Palace,,England",51.4987815,England,0,Europe,,,
FR,True,2.2920996,"Convent of,Chaillot,France",48.8689495,France,0,Europe,,,
IT,True,12.4829321,"Rome,,Italy",41.8933203,Italy,0,Europe,,,
IT,True,12.6803684,"Frascati,,Italy",41.8082452,Italy,0,Europe,,,
BE,True,3.951958,Mons,50.4549568,Belgium,0,Europe,,,
IT,True,11.2556404,"Florence,,Italy",43.7697955,Italy,0,Europe,,,
GB,True,-3.2004175,"Edinburgh Castle,,Scotland",55.9486867,Scotland,0,Europe,,,
GB,True,-0.0458452,"Theobalds Park,Hertfordshire,Herts,England",51.6963806,England,0,Europe,,,
GB,True,-3.9454009,"Skanderborg,Castle",51.6247029,United Kingdom,0,Europe,,,
GB,True,-0.340939,"Hampton Court,Palace",51.406013,United Kingdom,0,Europe,,,
GB,True,-3.9480016,Stirling Castle,56.1240308,United Kingdom,0,Europe,,,
GB,True,-3.4616183,Dunfermline,56.0713724,United Kingdom,0,Europe,,,
GB,True,-3.1660627,Dalkeith Palace,55.9330206,United Kingdom,0,Europe,,,
GB,True,-3.6006234,Linlithgow,55.977167,United Kingdom,0,Europe,,,
GB,True,-3.4616183,"Dunfermline,Scotland",56.0713724,Scotland,0,Europe,,,
GB,True,-0.1240287,"Whitehall Palace,,England",51.5045613,England,0,Europe,,,
GB,True,-0.7019072,"St. George's,Chapel,Windsor,England",51.5060495,England,0,Europe,,,
GB,True,-3.9360012,Stirling,56.1181242,United Kingdom,0,Europe,,,
GB,True,0.0485919,Greenwich Palace,51.4470989,United Kingdom,0,Europe,,,
GB,True,-0.2537791,"Stanwell Park,Middlesex,England",51.5460558,England,0,Europe,,,
DK,True,9.4914451,Haderslevhus,55.2498739,Denmark,0,Europe,,,
GB,True,-3.9454009,"Antvorslev,Castle",51.6247029,United Kingdom,0,Europe,,,
DK,True,12.0804349,"Roskilde,Cathedral,Denmark",55.6426437,Denmark,0,Europe,,,
DE,True,11.4647932,Wismar,53.8909832,Germany,0,Europe,,,
DK,True,11.8709918,Nykobing,54.7646137,Denmark,0,Europe,,,
FR,True,2.3356655,"Hotel du Louvre,Paris,France",48.8628245,France,0,Europe,,,
FR,True,1.8883335,"Colombe,Near Paris,France",46.603354,France,0,Europe,,,
FR,True,2.3627508,St. Denis,48.9383732,France,0,Europe,,,
FR,True,-0.1922837,"Pau,Navarre,France",49.098344,France,0,Europe,,,
GB,True,-1.3126773,"Carisbrooke,Castle,Isle of Wight,England",50.6875557,England,0,Europe,,,
GB,True,-0.1557398,"Oatlands,Surrey,England",51.1768955,England,0,Europe,,,
US,True,-75.4966933,Whitehall Palace,40.6548018,United States,0,North America,,,
GB,True,-3.5269209,"Bedford House,Exeter,England",50.7256138,England,0,Europe,,,
US,True,-94.1642004,St. Cloud,45.5616075,United States,0,North America,,,
PT,True,-9.1365919,"Vila Vicosa,Lisbon,Portugal",38.7077507,Portugal,0,Europe,,,
PT,True,-9.3850431,"Bemposta,Palace,Lisbon,Portugal",38.8000032,Portugal,0,Europe,,,
BR,True,-48.4682453,Belem,-1.45056,Brazil,0,South America,,,
GB,True,-0.1876332,"Kensington,Palace,England",51.505099,England,0,Europe,,,
DE,True,9.6516356,Rendsborg,54.3000225,Germany,0,Europe,,,
DE,True,8.047635,"Schloss Iburg,Near,Osnabruck",52.2719595,Germany,0,Europe,,,
DE,True,10.6857599,"Berlin,Cathedral,Germany",53.8609125,Germany,0,Europe,,,
DE,True,7.173014,"Konigsberg,Prussia",51.0416043,Germany,0,Europe,,,
GB,True,-1.2649062,"Pembroke Castle,Pembrokeshire,England",52.5310214,England,0,Europe,,,
GB,True,-0.7166168,"Richmond Palace,Richmond Surrey,England",51.3066341,England,0,Europe,,,
GB,True,-2.2000702,"Henry VII Chapel,Westminster,Abbey,England",51.004756,England,0,Europe,,,
GB,True,-0.1387624,"Westminster,Palace,London,England",51.4977609,England,0,Europe,,,
GB,True,-0.0761879,"Tower of London,London,England",51.508217,England,0,Europe,,,
GB,True,-0.1809044,"Henry VII Chapel,Westminster,Abbey,London",51.5346682,United Kingdom,0,Europe,,,
GB,True,-1.1117686,"St. Swithin's,Priory,Winchester,England",50.8739049,England,0,Europe,,,
GB,True,-2.7230141,Ludlow Castle,52.3671823,United Kingdom,0,Europe,,,
GB,True,-3.5549253,Methven Castle,56.4168208,United Kingdom,0,Europe,,,
GB,True,-1.2649062,",,England",52.5310214,England,0,Europe,,,
AR,True,-58.3887904,"Buenos Aires,Argentina",-34.6095579,Argentina,0,South America,,,
AR,True,-58.3887904,"Buenos Aires,,Argentina",-34.6095579,Argentina,0,South America,,,
GB,True,-2.4449716,"Portland Hosp.,,England",50.5658306,England,0,Europe,,,
GB,True,-1.2649062,"Greenwich Palace,,England",52.5310214,England,0,Europe,,,
GB,True,-0.1260912,"Whitehall,London,England",51.5023278,England,0,Europe,,,
GB,True,0.0485919,"Eltham Palace,,England",51.4470989,England,0,Europe,,,
GB,True,0.9929034,"Westhorpe,Suffolk,England",52.2820199,England,0,Europe,,,
GB,True,-0.1430045,"Greenwich,Palace,England",51.5008349,England,0,Europe,,,
GB,True,-0.2338423,"Bishops Hatfield,Herts,England",51.746687,England,0,Europe,,,
GB,True,-0.0761879,"Tower of London,,England",51.508217,England,0,Europe,,,
ES,True,-4.8379791,"Near Madrid,,Spain",39.3260685,Spain,0,Europe,,,
GB,True,-1.3758361,"Kimbolton Castle,Hunts,England",53.0381735,England,0,Europe,,,
GB,True,-1.4693102,"Peterborough,Cathedral,England",53.3827979,England,0,Europe,,,
GB,True,-3.6006234,"Linlithgow,,Scotland",55.977167,Scotland,0,Europe,,,
FR,True,1.3337639,"Blois,France",47.5876861,France,0,Europe,,,
GB,True,-0.1277653,"Greenwich Palace,London,England",51.5074456,England,0,Europe,,,
GB,True,1.2317081,"Blickling Hall,Norfolk,England",52.811735,England,0,Europe,,,
GB,True,-0.0761879,"Chapel Royal,Tower of London,London,England",51.508217,England,0,Europe,,,
GB,True,-0.0045417,"Greenwich,,England",51.4820845,England,0,Europe,,,
ZA,True,30.2455894,"Wolf Hall,Savernake,Wilts",-27.9585585,South Africa,0,Africa,,,
DE,True,6.7763137,Dusseldorf,51.2254018,Germany,0,Europe,,,
GB,True,-0.1687007,"Chelsea,,England",51.4875167,England,0,Europe,,,
GB,True,-0.1163354,Lambeth,51.4952111,United Kingdom,0,Europe,,,
GB,True,-0.3368838,"Chapel Royal,London,England",51.4035262,England,0,Europe,,,
GB,True,-2.7364732,Kendal Castle,54.3248665,United Kingdom,0,Europe,,,
GB,True,-1.9564293,"Sudeley Castle,Gloucestershire",51.9473749,United Kingdom,0,Europe,,,
US,True,-75.545906,"Sudeley Castle,Chapel",40.4344845,United States,0,North America,,,
GB,True,-1.2191206,"Bradgate,Leicestershire",52.7896379,United Kingdom,0,Europe,,,
GB,True,-0.0538225,"Tower of London,Tower Green,London,England",51.5307534,England,0,Europe,,,
GB,True,-0.3368838,"Tower of London,Chapel Royal,London,England",51.4035262,England,0,Europe,,,
ES,True,-4.728605,Valladolid,41.6521807,Spain,0,Europe,,,
ES,True,-3.7151134,"El Escorial,Palace,Madrid,Spain",40.4178245,Spain,0,Europe,,,
GB,True,-1.9483083,Evesham,52.0940158,United Kingdom,0,Europe,,,
RS,True,21.0765743,",,Yugoslavia",44.0243229,Serbia,0,Europe,,,
US,True,-100.445882,U.S.A.,39.7837304,USA,0,North America,,,
US,True,-77.0365427,"Washington D.C.,U.S.A.",38.8950368,USA,0,North America,,,
FR,True,2.1266886,"Versailles,France",48.8035403,France,0,Europe,,,
ES,True,-4.8379791,"Madrid,Spain,Spain",39.3260685,Spain,0,Europe,,,
ES,True,-4.8379791,",,Spain",39.3260685,Spain,0,Europe,,,
NO,True,10.7389701,"Oslo,Norway",59.9133301,Norway,0,Europe,,,
BR,True,-53.2,",,Brazil",-10.3333333,Brazil,0,South America,,,
RO,True,26.9284165,"Roman,Romania",46.92528,Romania,0,Europe,,,
GB,True,-3.9454009,"Fotheringay,Castle",51.6247029,United Kingdom,0,Europe,,,
US,True,-93.3346524,Bosworth,39.469745,United States,0,North America,,,
GB,True,-1.1369949,"Grey Friars,Abbey,Leicester",52.6486906,United Kingdom,0,Europe,,,
GB,True,-1.5844827,"Warwick Castle,Warwick,England",52.279527,England,0,Europe,,,
GB,True,-1.8068844,"Middleham Castle,Yorkshire,England",54.284101,England,0,Europe,,,
FR,True,1.0939658,"Rouen,France",49.4404591,France,0,Europe,,,
GB,True,-0.865913,"Grafton Regis,Northants",52.3106138,United Kingdom,0,Europe,,,
GB,True,-0.0788246,Bermondsey Abbey,51.4975728,United Kingdom,0,Europe,,,
GB,True,-1.205039,"Quarr Abbey,Isle of Wight,England",50.7315258,England,0,Europe,,,
GB,True,-0.1302065,"Sanctuary,Westminster,England",51.4979855,England,0,Europe,,,
GB,True,-2.7540658,Shrewsbury,52.707755,United Kingdom,0,Europe,,,
GB,True,-0.1430045,"Westminster,Palace",51.5008349,United Kingdom,0,Europe,,,
GB,True,0.0485919,Eltham Palace,51.4470989,United Kingdom,0,Europe,,,
GB,True,-3.4875797,Tiverton,50.9025623,United Kingdom,0,Europe,,,
GB,True,0.21807,Dartford,51.4443059,United Kingdom,0,Europe,,,
GB,True,-0.1277653,"London,,England",51.5074456,England,0,Europe,,,
GB,True,-0.1255492,"Westminster,Palace,England",51.4991508,England,0,Europe,,,
GB,True,-2.1549574,Tewkesbury,51.9937857,United Kingdom,0,Europe,,,
SE,True,13.0001566,Malmo,55.6052931,Sweden,0,Europe,,,
AT,True,15.5032811,"Grunau,Austria",48.0990638,Austria,0,Europe,,,
CH,True,8.2319736,",Switzerland",46.7985624,Switzerland,0,Europe,,,
RO,True,27.5837814,Jassy,47.1615598,Romania,0,Europe,,,
PT,True,-9.3901368,"Estoril,Portugal",38.7095707,Portugal,0,Europe,,,
SE,True,18.0710935,Stockholm,59.3251172,Sweden,0,Europe,,,
DE,True,9.1800132,Stuttgart,48.7784485,Germany,0,Europe,,,
NL,True,5.9539965,"Het Loo,Apeldoorn",52.2342595,Netherlands,0,Europe,,,
RO,True,26.102684,"Cotroceni Palace,Bucharest,Romania",44.4361414,Romania,0,Europe,,,
DE,True,7.466302,"Neuwied,Germany",50.4302393,Germany,0,Europe,,,
RO,True,24.6779826,"Curtea de Arges,Romania",45.1469341,Romania,0,Europe,,,
DE,True,11.3111908,Possenhofen,47.9592147,Germany,0,Europe,,,
GB,True,-0.1027127,"Highbury,London,England",51.5457996,England,0,Europe,,,
DE,True,8.651177,Darmstadt,49.872775,Germany,0,Europe,,,
DE,True,8.694724,"Near,Heidelberg,Germany",49.4093582,Germany,0,Europe,,,
FR,True,7.7507127,Strassburg,48.584614,France,0,Europe,,,
FR,True,7.2683912,Nice,43.7009358,France,0,Europe,,,
DE,True,11.5753822,"St. Boniface,Church,Munich",48.1371079,Germany,0,Europe,,,
DE,True,11.5753822,Munich,48.1371079,Germany,0,Europe,,,
DE,True,10.7496959,"Schloss,Hohenschwangau",47.5575522,Germany,0,Europe,,,
DE,True,11.5032919,"Schloss,Nymphenburg",48.1583251,Germany,0,Europe,,,
FR,True,6.3111933,"Starnbergersee,Near Schloss,Berg",49.4307696,France,0,Europe,,,
DE,True,11.5753822,"St. Michaels,Church,Munich",48.1371079,Germany,0,Europe,,,
DE,True,11.5753822,"Near,Munich",48.1371079,Germany,0,Europe,,,
AT,True,13.0464806,"Salzburg,Austria",47.7981346,Austria,0,Europe,,,
DE,True,10.8868478,"Bamberg,Germany",49.8916044,Germany,0,Europe,,,
DE,True,13.0653774,"Sans Souci,Potsdam,Germany",52.3994327,Germany,0,Europe,,,
DE,True,14.1392316,"Coln au Der,Spree",51.8426075,Germany,0,Europe,,,
DE,True,11.5625238,Grabow,53.2789153,Germany,0,Europe,,,
CH,True,7.3435968,Dotzingen,47.1208887,Switzerland,0,Europe,,,
FR,True,6.0547691,"Pont-a-Mousson,Lorraine",48.9025946,France,0,Europe,,,
FR,True,-0.5580321,"Angers,Cathedral",47.4708864,France,0,Europe,,,
US,True,-74.1671114,Monmouth,40.2932319,United States,0,North America,,,
FR,True,2.4341479,"Bois de,Vincennes",48.831548,France,0,Europe,,,
GB,True,-0.0788246,"Bermondsey,Abbey",51.4975728,United Kingdom,0,Europe,,,
GB,True,-3.9454009,"Bolingbrooke,Castle",51.6247029,United Kingdom,0,Europe,,,
GB,True,-1.4693102,"Canterbury,Cathedral,England",53.3827979,England,0,Europe,,,
GB,True,-0.3000383,"Peterborough,Castle",52.6569988,United Kingdom,0,Europe,,,
US,True,-87.7149295,Kenilworth,42.0894728,United States,0,North America,,,
FR,True,0.4614741,Beauge,47.7456327,France,0,Europe,,,
FR,True,1.0939658,Rouen,49.4404591,France,0,Europe,,,
GB,True,0.7125173,Bury St. Edmunds,52.2460367,United Kingdom,0,Europe,,,
DE,True,10.4478313,Germany,51.1638175,Germany,0,Europe,,,
SE,True,14.8920065,"Convent,of Vadstena",58.4483628,Sweden,0,Europe,,,
CN,True,116.2647403,Sheen Palace,39.9900983,China,0,Asia,,,
FR,True,3.5234846,Valenciennes,50.3579317,France,0,Europe,,,
GB,True,-1.3545343,"Woodstock,Oxfordshire,England",51.8474887,England,0,Europe,,,
GB,True,-0.1394181,"Canterbury,Cathedral,London,England",51.4958266,England,0,Europe,,,
US,True,-74.1182492,Woodstock,42.0410578,United States,0,North America,,,
GB,True,-0.1277653,London,51.5074456,United Kingdom,0,Europe,,,
FR,True,-1.4736657,Bayonne,43.4945144,France,0,Europe,,,
GB,True,-0.2258741,Hatfield Herts,51.7634675,United Kingdom,0,Europe,,,
BE,True,4.3997081,"Antwerp,Belgium",51.2211097,Belgium,0,Europe,,,
IE,True,-6.2605593,"Dublin,Ireland",53.3493795,Ireland,0,Europe,,,
BE,True,3.7250121,Ghent,51.0538286,Belgium,0,Europe,,,
GB,True,-1.140593,Leicester Castle,52.6323702,United Kingdom,0,Europe,,,
GB,True,-0.4503027,"Kings Langley,Herts",51.7135573,United Kingdom,0,Europe,,,
GB,True,-0.0761879,Tower of London,51.508217,United Kingdom,0,Europe,,,
GB,True,-1.3290508,"Waltham,Near Winchester",51.0551516,United Kingdom,0,Europe,,,
FR,True,1.8538446,Calais,50.9524769,France,0,Europe,,,
GB,True,0.0165423,"Bolingbroke,Castle",53.1651885,United Kingdom,0,Europe,,,
GB,True,-3.6006234,"Linlithgow,Scotland",55.977167,Scotland,0,Europe,,,
GB,True,-1.2649062,",England",52.5310214,England,0,Europe,,,
FR,True,1.9086066,"Orleans,France",47.9027336,France,0,Europe,,,
GB,True,-3.9360012,"Stirling,Scotland",56.1181242,Scotland,0,Europe,,,
GB,True,0.7210362,"Eltham Palace,Kent",51.2070749,United Kingdom,0,Europe,,,
AU,True,115.8605784,Perth,-31.9558967,Australia,0,Oceania,,,
NL,True,6.2364886,Deventer,52.2694896,Netherlands,0,Europe,,,
US,True,-77.0115135,Hertford,36.3560545,United States,0,North America,,,
GB,True,-2.9192473,Near Carlisle,54.913312,United Kingdom,0,Europe,,,
US,True,-78.0544514,Castile,42.6289515,United States,0,North America,,,
GB,True,-0.2031209,"Herdeby,Near Grantham,Lincolnshire",53.1823034,United Kingdom,0,Europe,,,
GB,True,-0.1265398,"Westminster,London,England",51.5004439,England,0,Europe,,,
GB,True,-0.4774898,"Merton,Surrey",51.1423906,United Kingdom,0,Europe,,,
US,True,-93.2471084,Holy Land,45.0138671,United States,0,North America,,,
PS,True,35.0494777,"Acre,Palestine",31.5197847,"Palestine, State of",0,Asia,,,
GB,True,0.5820634,"Clare,Suffolk,England",52.0793283,England,0,Europe,,,
FR,True,-0.5800364,Bordeaux,44.841225,France,0,Europe,,,
BE,True,4.351697,Brussels,50.8465573,Belgium,0,Europe,,,
GB,True,-0.1058829,Kennington,51.4882861,United Kingdom,0,Europe,,,
US,True,-70.9300921,Amesbury,42.8579536,United States,0,North America,,,
GB,True,-3.4642147,Rhuddlan Castle,53.2891801,United Kingdom,0,Europe,,,
FR,True,-0.1839979,Aquitaine,44.2462064,France,0,Europe,,,
US,True,-117.1057795,"Marlborough,Castle",32.7432193,United States,0,North America,,,
GB,True,-1.2713416,"Brotherton,Yorkshire,England",53.7281813,England,0,Europe,,,
GB,True,-1.3131692,Winchester,51.0612766,United Kingdom,0,Europe,,,
GB,True,-1.3201176,"Winchester,Castle",51.064366,United Kingdom,0,Europe,,,
FR,True,5.4474738,Aix-en-Provence,43.5298424,France,0,Europe,,,
GB,True,-1.7706128,"Amesbury,Wiltshire",51.1706875,United Kingdom,0,Europe,,,
US,True,-70.9300921,"Convent Church,Amesbury",42.8579536,United States,0,North America,,,
GB,True,-3.0000001,"Cupar Castle,Fife",56.3333331,United Kingdom,0,Europe,,,
GB,True,-0.1265398,Westminster,51.5004439,United Kingdom,0,Europe,,,
NL,True,5.6969882,Maastricht,50.8579855,Netherlands,0,Europe,,,
PL,True,14.5509623,"Szczecin,Poland",53.4301818,Poland,0,Europe,,,
DE,True,10.135555,"Kiel,Germany",54.3227085,Germany,0,Europe,,,
LV,True,25.8687747,"Jakobstadt,Latvia",56.4958638,Latvia,0,Europe,,,
RU,True,37.6043689,"Near Moscow,Russia",55.7582857,Russian Federation,0,Europe,,,
US,True,-96.7077751,Lincoln,40.8088861,United States,0,North America,,,
FR,True,6.236384,Agincourt,48.7323472,France,0,Europe,,,
FR,True,2.1022294,"St Germain-en-,Laye,France",48.9994177,France,0,Europe,,,
FR,True,2.3627508,"St Denis,France",48.9383732,France,0,Europe,,,
GB,True,0.4646698,"Barking Abbey,Essex,England",51.7704679,England,0,Europe,,,
IE,True,-7.9794599,",,,Ireland",52.865196,Ireland,0,Europe,,,
GB,True,-1.2578499,"Beaumont Palace,Oxford,England",51.7520131,England,0,Europe,,,
GB,True,-0.8131753,"Newark Castle,Newark,Nottinghamshire,England",53.0802549,England,0,Europe,,,
GB,True,-2.2201692,"Worcester,Cathedral",52.1895377,United Kingdom,0,Europe,,,
FR,True,0.1561947,Angouleme,45.6484505,France,0,Europe,,,
FR,True,0.0378807,Fontevraud,47.1813534,France,0,Europe,,,
GB,True,-1.319524,"Winchester,Castle,England",51.0630153,England,0,Europe,,,
GB,True,-0.8131753,"Newark Castle,Newark,England",53.0802549,England,0,Europe,,,
GB,True,-2.2458192,"Gloucester,England",51.8653705,England,0,Europe,,,
GB,True,-2.2298879,"Near London,England",53.4750463,England,0,Europe,,,
GB,True,-2.2458192,Gloucester,51.8653705,United Kingdom,0,Europe,,,
IT,True,15.4528939,Foggia,41.5028106,Italy,0,Europe,,,
FR,True,2.7310072,"Montargis,France",47.9978628,France,0,Europe,,,
FR,True,0.1967849,Le Mans,48.0073849,France,0,Europe,,,
FR,True,0.2402095,Chinon,47.1667182,France,0,Europe,,,
DE,True,13.4357119,Bordeaux/Berlin,52.598712,Germany,0,Europe,,,
GB,True,-0.673856,"Normandy,England",51.2550773,England,0,Europe,,,
GB,True,-0.6040419,"Wallingford,Castle,Berkshire,England",51.4837886,England,0,Europe,,,
GB,True,-0.063268,Bermondsey,51.4970125,United Kingdom,0,Europe,,,
FR,True,1.6096276,Martel,44.9373274,France,0,Europe,,,
DE,True,10.5236066,Brunswick,52.2646577,Germany,0,Europe,,,
FR,True,0.9798059,"Chalus,Limousin",45.6516342,France,0,Europe,,,
FR,True,-0.6473487,"Domfront,Normandy",48.5931801,France,0,Europe,,,
ES,True,-3.696977,Burgos,42.343926,Spain,0,Europe,,,
FR,True,-0.5515588,Angers,47.4739884,France,0,Europe,,,
FR,True,-0.1999129,"Falaise,Normandy,France",48.8964741,France,0,Europe,,,
FR,True,1.8883335,"Near Rouen,France",46.603354,France,0,Europe,,,
FR,True,-0.3635615,"St Stephen Abbey,Caen,Normandy",49.1813403,France,0,Europe,,,
FR,True,2.7451212,"Flanders,France",50.6112375,France,0,Europe,,,
FR,True,-0.3635615,Caen,49.1813403,France,0,Europe,,,
FR,True,-0.2040307,"Holy Trinity,Abbey,Caen",48.9055604,France,0,Europe,,,
FR,True,0.3138532,"Normandy,France",49.0677708,France,0,Europe,,,
GB,True,-3.181171,Cardiff Castle,51.4823315,United Kingdom,0,Europe,,,
GB,True,-1.5956844,New Forest,50.8557268,United Kingdom,0,Europe,,,
GB,True,-1.3132458,"Winchester,Cathedral",51.0607326,United Kingdom,0,Europe,,,
FR,True,4.0454737,"Marcigny-sur-,Loire,France",45.7538536,France,0,Europe,,,
FR,True,-2.9202408,"Brittany,France",48.2640845,France,0,Europe,,,
GB,True,-1.0990407,"Selby,Yorkshire,England",53.785097,England,0,Europe,,,
GB,True,-0.9650458,Reading Abbey,51.456203,United Kingdom,0,Europe,,,
BE,True,4.7011675,"Louvain,Belgium",50.879202,Belgium,0,Europe,,,
BE,True,4.2405556,"Afflighem,Flanders",51.0377778,Belgium,0,Europe,,,
GB,True,1.3228764,Dover Castle,51.1289759,United Kingdom,0,Europe,,,
GB,True,0.8948973,Faversham Abbey,51.3171337,United Kingdom,0,Europe,,,
FR,True,-1.3210389,Boulogne,46.7947224,France,0,Europe,,,
GB,True,0.6014794,"Hedingham Castle,Essex,England",51.9924915,England,0,Europe,,,
GB,True,0.7125173,Bury St Edmunds,52.2460367,United Kingdom,0,Europe,,,
FR,True,1.4442433,Toulouse,43.6044638,France,0,Europe,,,
NL,True,5.1215634,Utrecht,52.0907006,Netherlands,0,Europe,,,
FR,True,0.4310474,Chateau-du-Loir,47.6995205,France,0,Europe,,,
FR,True,-0.5800364,"Bordeaux,France",44.841225,France,0,Europe,,,
GB,True,-1.3040108,"Pontefract,Castle",53.695425,United Kingdom,0,Europe,,,
CZ,True,14.4212535,Prague,50.0874654,Czechia,0,Europe,,,
FR,True,1.3337639,Blois,47.5876861,France,0,Europe,,,
FR,True,2.3483915,"Celestines,Paris",48.8534951,France,0,Europe,,,
GB,True,-1.1331969,"Leicester,England",52.6362,England,0,Europe,,,
IE,True,-6.2605593,Dublin,53.3493795,Ireland,0,Europe,,,
FR,True,2.3627508,St Denis,48.9383732,France,0,Europe,,,
FR,True,-0.4646064,"Niort,France",46.3239233,France,0,Europe,,,
FR,True,-1.4194777,"St Cyr,France",49.4877114,France,0,Europe,,,
FR,True,-1.4194777,St Cyr,49.4877114,France,0,Europe,,,
AT,True,16.3725042,"Vienna,Austria",48.2083537,Austria,0,Europe,,,
GB,True,-4.8515956,"Cardoss Castle,Firth of Clyde,Scotland",55.5035646,Scotland,0,Europe,,,
GB,True,-3.1883749,"Edinburgh,Scotland",55.9533456,Scotland,0,Europe,,,
GB,True,-2.4561649,"Roxburgh Castle,Scotland",55.5966085,Scotland,0,Europe,,,
GB,True,-0.0991571,St. Paul's,51.5154842,United Kingdom,0,Europe,,,
GB,True,-1.2364036,"Islip,Oxfordshire,England",51.8231826,England,0,Europe,,,
GB,True,0.5821779,Hastings,50.8550976,United Kingdom,0,Europe,,,
GB,True,-2.1955975,"Shaftesbury,England",51.0056195,England,0,Europe,,,
GB,True,-0.1394181,"Winchester,Cathedral,London,England",51.4958266,England,0,Europe,,,
GB,True,-1.2578499,"Oxford,England",51.7520131,England,0,Europe,,,
GB,True,-0.1138393,"St Clement Danes,London,England",51.5131211,England,0,Europe,,,
CA,True,-79.1916644,"Cooksville,Near Toronto,Ontario,Canada",43.7784533,Canada,0,North America,,,
GB,True,-0.1225014,Stockwell,51.472211,United Kingdom,0,Europe,,,
GB,True,-4.0897597,Beaumaris Castle,53.2648344,United Kingdom,0,Europe,,,
ES,True,-1.6440089,Pamplona,42.8181992,Spain,0,Europe,,,
GB,True,0.1812697,"Havering atte,Bower,Essex,England",51.6203612,England,0,Europe,,,
GB,True,-1.4693102,"Canterbury,Cathedral,,England",53.3827979,England,0,Europe,,,
FR,True,-0.5879629,"Talence,Gironde,France",44.8088438,France,0,Europe,,,
DE,True,8.694724,"Heidelberg,Germany",49.4093582,Germany,0,Europe,,,
IT,True,9.1896346,"Milan,Italy",45.4641943,Italy,0,Europe,,,
FR,True,-0.3654323,"Pau,Bearn,France",43.3175502,France,0,Europe,,,
FR,True,3.0029271,"Marseilles,France",47.0706778,France,0,Europe,,,
DK,True,12.5811865,"Christiansborg,Nr: Copenhagen,Denmark",55.6764463,Denmark,0,Europe,,,
DK,True,12.5930781,"Amalienborg,Denmark",55.6839601,Denmark,0,Europe,,,
DK,True,12.3950911,"Fredensborg,Denmark",55.9821565,Denmark,0,Europe,,,
DK,True,8.534191,Klausholm,56.441085,Denmark,0,Europe,,,
DE,True,9.4333264,Flensborg,54.7833021,Germany,0,Europe,,,
DK,True,12.3063909,Frederiksborg,55.9285735,Denmark,0,Europe,,,
DK,True,10.3852104,Odense,55.3997225,Denmark,0,Europe,,,
DK,True,9.4997871,"Haderslev,Denmark",55.2500715,Denmark,0,Europe,,,
DE,True,10.3428415,Herzberg,51.6565219,Germany,0,Europe,,,
GY,True,-58.013347,Coldingen,6.7855644,Guyana,0,South America,,,
DK,True,9.7897999,Sonderburg,54.9089186,Denmark,0,Europe,,,
DE,True,10.135555,Kiel,54.3227085,Germany,0,Europe,,,
DE,True,11.2234177,Keil,50.6271381,Germany,0,Europe,,,
DE,True,11.4993644,Ludwigslust,53.3300229,Germany,0,Europe,,,
DE,True,9.5620334,Glucksburg,54.8454449,Germany,0,Europe,,,
DE,True,13.0630004,Neustrelitz,53.3617163,Germany,0,Europe,,,
DE,True,8.2146017,"Oldenburg,Germany",53.1389753,Germany,0,Europe,,,
DE,True,10.964561,"Coburg,Germany",50.2582226,Germany,0,Europe,,,
FR,True,-0.2101927,"St Marguerite,Cemetery,France",45.8057836,France,0,Europe,,,
US,True,-117.7197785,Claremont,34.0966764,United States,0,North America,,,
FR,True,2.0426301,"Poissy,,,France",48.9274192,France,0,Europe,,,
FR,True,2.8953121,Perpignan,42.6985304,France,0,Europe,,,
TN,True,10.1408787,"Tunis,,,Africa",36.8107673,Tunisia,0,Africa,,,
FR,True,3.1531803,"Auvergne,France",45.7100132,France,0,Europe,,,
FR,True,2.4396714,"Vincennes,France",48.8474508,France,0,Europe,,,
ES,True,-5.9953403,"Seville,,,Spain",37.3886303,Spain,0,Europe,,,
GB,True,-2.716577,Glastonbury,51.14804,United Kingdom,0,Europe,,,
GB,True,-2.0982042,Malmesbury,51.58447,United Kingdom,0,Europe,,,
FR,True,-0.3250175,"Cognac,France",45.6931647,France,0,Europe,,,
FR,True,1.819207,"Rambouillet,France",48.6452851,France,0,Europe,,,
FR,True,2.6608169,"Abbey Barbeaux,Melun,France",48.539927,France,0,Europe,,,
GB,True,-1.4249258,"Wantage,,,England",51.5878072,England,0,Europe,,,
DE,True,10.4266284,"Goslar,,,Germany",51.9059936,Germany,0,Europe,,,
BE,True,5.7735658,"Liege,,,Belgium",50.4708135,Belgium,0,Europe,,,
IT,True,12.4829321,"Rome,,,Italy",41.8933203,Italy,0,Europe,,,
ES,True,-3.703507,"Madrid,,,Spain",40.416782,Spain,0,Europe,,,
UA,True,34.9027961,"Olesko,Now:,Ukraine,SSR",48.6371609,Ukraine,0,Europe,,,
PL,True,21.1104411,"Wilanow,Nr.,Warsaw,Poland",52.1530829,Poland,0,Europe,,,
AT,True,15.4382786,"Graz,Austria",47.0708678,Austria,0,Europe,,,
FR,True,6.1834097,"Nancy,Lorraine",48.6937223,France,0,Europe,,,
FR,True,2.0942792,"Saint-Germain,en-Laye",48.8990413,France,0,Europe,,,
FR,True,1.8883335,"Gonesse,Nr: Paris,France",46.603354,France,0,Europe,,,
FR,True,-0.3189166,"Mantes,France",43.1467407,France,0,Europe,,,
FR,True,1.8883335,"Vitry-en-Brie,France",46.603354,France,0,Europe,,,
FR,True,1.5854911,"Lyons,France",49.5032625,France,0,Europe,,,
FR,True,5.2864826,"Longchamp,France",47.260804,France,0,Europe,,,
FR,True,1.5322266,"Nogent-le-Roi,France",48.6485761,France,0,Europe,,,
FR,True,0.1967849,"Le Mans,France",48.0073849,France,0,Europe,,,
FR,True,2.3362042,"Palace Royal,France,France",48.8635847,France,0,Europe,,,
FR,True,2.399125,"Bourges,France",47.0811658,France,0,Europe,,,
FR,True,1.755292,"Notre Dame,de Clery,France",47.820139,France,0,Europe,,,
FR,True,0.983698,Amboise,47.4110351,France,0,Europe,,,
US,True,-95.4933307,Modano,29.5463995,United States,0,North America,,,
DE,True,10.4478313,",Germany",51.1638175,Germany,0,Europe,,,
SE,True,15.016667,"Nora,Sweden",59.533333,Sweden,0,Europe,,,
BE,True,3.226772,"Bruges,Flanders",51.2085526,Belgium,0,Europe,,,
GB,True,0.4318137,"Sandringham,England",52.8427652,England,0,Europe,,,
CA,True,-107.991707,Canada,61.0666922,Canada,0,North America,,,
AT,True,14.12456,Austria,47.59397,Austria,0,Europe,,,
FR,True,1.8883335,France,46.603354,France,0,Europe,,,
FR,True,2.4868314,"Nr Cassel,France",50.8000011,France,0,Europe,,,
BE,True,2.8285726,Zuidschote,50.9129617,Belgium,0,Europe,,,
IT,True,11.2556404,"Florence,Italy",43.7697955,Italy,0,Europe,,,
RU,True,30.3151887,"Winter Palace,,St. Petersburg,Russia",59.9404625,Russian Federation,0,Europe,,,
GB,True,-1.2703607,"Whippingham,Isle of Wight",50.740502,United Kingdom,0,Europe,,,
GB,True,-0.1368605,"Chapel Royal,St. James Palace",51.5055097,United Kingdom,0,Europe,,,
GB,True,-1.2700819,"Osborne House,Isle of Wight",50.7505772,United Kingdom,0,Europe,,,
GB,True,-0.1394181,"Westminster,Cathedral,London,England",51.4958266,England,0,Europe,,,
GB,True,-0.1394181,"St. Paul's,Cathedral,London,England",51.4958266,England,0,Europe,,,
FR,True,0.6642474,"Chateau de Cande,Monts,,France",47.2969202,France,0,Europe,,,
RU,True,30.3151887,"Winter Palace,St. Petersburg,Russia",59.9404625,Russian Federation,0,Europe,,,
GB,True,-0.6040419,"Windsor Castle,,,England",51.4837886,England,0,Europe,,,
GB,True,-0.6040419,"Windsor,England",51.4837886,England,0,Europe,,,
GB,True,-0.1423506,"Chapel Royal,St James Palace,,England",51.4987815,England,0,Europe,,,
GB,True,-0.1265398,"St. Margarets,Westminster,England",51.5004439,England,0,Europe,,,
GB,True,-0.134922,Caxton Hall,51.4986976,United Kingdom,0,Europe,,,
GB,True,-0.0461637,"Carlton House,London,England",51.5243471,England,0,Europe,,,
GB,True,0.2599546,"Chapel Royal,St. James",51.1270155,United Kingdom,0,Europe,,,
ES,True,-3.6909511,"Church of,San Jeronimo,Madrid,Spain",40.414505,Spain,0,Europe,,,
RO,True,26.102684,"Bucharest,Romania",44.4361414,Romania,0,Europe,,,
NO,True,10.747012,"Oslo Cathedral,Oslo,Norway",59.9125115,Norway,0,Europe,,,
DE,True,11.7543337,"Tegernsee,,Bavaria",47.7099191,Germany,0,Europe,,,
GB,True,0.2599546,"Chapel Royal,St. James,England",51.1270155,England,0,Europe,,,
NL,True,4.7760237,Breda,51.5887845,Netherlands,0,Europe,,,
GB,True,1.3134228,"Dover,,England",51.1251275,England,0,Europe,,,
IT,True,13.7974382,Monte Fiascone,45.6632366,Italy,0,Europe,,,
GB,True,1.0802533,"Canterbury,,England",51.2800275,England,0,Europe,,,
FR,True,2.3483915,"Paris,,France",48.8534951,France,0,Europe,,,
GB,True,-1.0906023,"Portsmouth,England",50.800031,England,0,Europe,,,
GB,True,-0.1265398,"Westminster,,England",51.5004439,England,0,Europe,,,
GB,True,-0.1277653,",London,England",51.5074456,England,0,Europe,,,
GB,True,-0.32432,"Chichester,Register Office,England",51.4480097,England,0,Europe,,,
GB,True,-1.1564776,"Dummer,,England",51.2123026,England,0,Europe,,,
GB,True,-0.1277653,"St. Pauls Cath.,London,England",51.5074456,England,0,Europe,,,
FR,True,1.8337029,Abbeville,50.1060835,France,0,Europe,,,
GB,True,-0.0045417,"Grey Friars Ch.,Greenwich,England",51.4820845,England,0,Europe,,,
GB,True,0.0690757,"York Place,,England",51.5594233,England,0,Europe,,,
GB,True,-0.1234273,"Durham House,London,England",51.5091059,England,0,Europe,,,
GB,True,-1.3132458,"Winchester,Cathedral,,England",51.0607326,England,0,Europe,,,
DE,True,10.8253152,"Salem,Bavaria",53.6563082,Germany,0,Europe,,,
FR,True,-2.0580178,"Dinard,,France",48.6320379,France,0,Europe,,,
NO,True,8.7876653,"Asker,Near Oslo,Norway",61.1529386,Norway,0,Europe,,,
UA,True,30.7322878,Odessa,46.4843023,Ukraine,0,Europe,,,
GB,True,-0.1265398,"Westminster,,London,England",51.5004439,England,0,Europe,,,
GB,True,-0.1198932,"St. Stephen's,Chapel,Westminster,England",51.5105657,England,0,Europe,,,
BR,True,-53.2,"Rio de Janerio,Brazil",-10.3333333,Brazil,0,South America,,,
NL,True,4.8924534,"Amsterdam,Netherlands",52.3730796,Netherlands,0,Europe,,,
CA,True,-64.1114622,"Titchfield,Abbey,Hants",44.9849414,Canada,0,North America,,,
FR,True,4.0746257,Troyes,48.2971626,France,0,Europe,,,
GB,True,-0.5540305,Arundel Castle,50.856776,United Kingdom,0,Europe,,,
GB,True,-1.0820834,York Minster,53.9623561,United Kingdom,0,Europe,,,
GB,True,-0.9836342,Reading,51.4514953,United Kingdom,0,Europe,,,
ES,True,-3.7968446,Las Huelgas,38.0135643,Spain,0,Europe,,,
GB,True,1.082766,"Canterbury,Cathedral",51.2797999,United Kingdom,0,Europe,,,
FR,True,2.7526389,Therouenne,48.444586,France,0,Europe,,,
IT,True,10.3402239,Leghorn,42.7902379,Italy,0,Europe,,,
GB,True,-0.1265398,"Westminster,England",51.5004439,England,0,Europe,,,
DE,True,8.2736253,Mainz,49.9995205,Germany,0,Europe,,,
FR,True,-1.5592776,Biarritz,43.4832523,France,0,Europe,,,
FR,True,0.6032061,Roquefort,43.7589265,France,0,Europe,,,
FR,True,-1.6636947,"St Jean-de-Luz,France",43.387219,France,0,Europe,,,
GB,True,-2.0026472,Berwick-on-Tweed,55.7692442,United Kingdom,0,Europe,,,
DE,True,9.6550096,"Minden,Saxony,Germany",51.4161908,Germany,0,Europe,,,
RU,True,97.7453061,",,,Russia",64.6863136,Russian Federation,0,Europe,,,
GB,True,-0.8946441,"Fawley,Bucks",51.7834994,United Kingdom,0,Europe,,,
DE,True,7.7689951,"Kaiserslautern,Germany",49.4432174,Germany,0,Europe,,,
DE,True,8.3620898,Worms,49.6302618,Germany,0,Europe,,,
GB,True,-1.0743052,York,53.9656579,United Kingdom,0,Europe,,,
GB,True,1.1528095,Ipswich,52.0579324,United Kingdom,0,Europe,,,
DE,True,6.959974,"Cologne,Germany",50.938361,Germany,0,Europe,,,
SE,True,13.1929449,Lund,55.7029296,Sweden,0,Europe,,,
FR,True,4.0218449,Sceaux,47.5147285,France,0,Europe,,,
DK,True,12.3063909,"Frederiksborg,Denmark",55.9285735,Denmark,0,Europe,,,
DE,True,9.4238157,Gluckstadt,53.787927,Germany,0,Europe,,,
DE,True,10.5513889,Lauenburg,53.3789803,Germany,0,Europe,,,
DK,True,9.8743203,Augustenburg,54.9506719,Denmark,0,Europe,,,
FR,True,2.8263171,Compiegne,49.4179497,France,0,Europe,,,
GB,True,-0.092024,"Guildhall,London,England",51.5159067,England,0,Europe,,,
GB,True,-0.3088135,Richmond Palace,51.4608257,United Kingdom,0,Europe,,,
GB,True,-0.1430045,Westminster Palace,51.5008349,United Kingdom,0,Europe,,,
GB,True,-0.127391,Westminster Abbey,51.499399,United Kingdom,0,Europe,,,
GB,True,-0.2497326,"Hadham, Hertfordshire",51.7619024,United Kingdom,0,Europe,,,
GB,True,-4.3090685,"Greyfriars, Carmarthen",51.8558677,United Kingdom,0,Europe,,,
GB,True,-0.4982671,Bletsoe,52.2223,United Kingdom,0,Europe,,,
GB,True,-0.0969218,Holyrood House,51.5687734,United Kingdom,0,Europe,,,
GB,True,-2.8219204,Lathom,53.5922118,United Kingdom,0,Europe,,,
GB,True,-2.8562818,"Burscough Priory, Lancashire",53.5830394,United Kingdom,0,Europe,,,
GB,True,-0.0045417,Greenwich,51.4820845,United Kingdom,0,Europe,,,
GB,True,-0.3874234,Kimbolton Castle,52.2956317,United Kingdom,0,Europe,,,
GB,True,-0.1069484,Peterborough Abbey,52.6204644,United Kingdom,0,Europe,,,
GB,True,-0.1952388,"Tower Green, London",51.5716283,United Kingdom,0,Europe,,,
GB,True,-0.0580353,St Peter's in the Tower,51.5061601,United Kingdom,0,Europe,,,
GB,True,-1.9564293,Sudeley Castle,51.9473749,United Kingdom,0,Europe,,,
GB,True,0.3174788,"?Blackmore, Essex",51.6924016,United Kingdom,0,Europe,,,
GB,True,0.748712,Thetford,52.4156001,United Kingdom,0,Europe,,,
IE,True,-8.7349343,Bridewell,51.7458938,Ireland,0,Europe,,,
GB,True,1.0154742,"Kenninghall, Norfolk",52.4312952,United Kingdom,0,Europe,,,
GB,True,1.3415864,Framlingham,52.2220579,United Kingdom,0,Europe,,,
GB,True,-0.1163354,"Howard Chapel, Lambeth",51.4952111,United Kingdom,0,Europe,,,
GB,True,-0.0045417,"Greyfriars, Greenwich",51.4820845,United Kingdom,0,Europe,,,
GB,True,-0.2273878,"Bishop's Hatfield, Hertfordshire",51.7587179,United Kingdom,0,Europe,,,
GB,True,-1.3131692,"St Swithin's Priory, Winchester",51.0612766,United Kingdom,0,Europe,,,
GB,True,-1.3132458,Winchester Cathedral,51.0607326,United Kingdom,0,Europe,,,
GB,True,-2.7230141,"Ludlow Castle, Shropshire",52.3671823,United Kingdom,0,Europe,,,
GB,True,-2.2208069,Worcester Cathedral,52.1887311,United Kingdom,0,Europe,,,
GB,True,-0.307877,"Richmond, Surrey",51.4690089,United Kingdom,0,Europe,,,
US,True,-74.2630469,"Hampton Court , Middlesex",40.4244292,United States,0,North America,,,
US,True,-74.2630469,"Hampton Court, Middlesex",40.4244292,United States,0,North America,,,
GB,True,1.3466796,Framlingham Castle,52.2242205,United Kingdom,0,Europe,,,
GB,True,0.7208295,Thetford Abbey,52.426002,United Kingdom,0,Europe,,,
GB,True,0.9994834,"Westhorpe Hall, Suffolk",52.2823929,United Kingdom,0,Europe,,,
GB,True,0.7194845,Bury St Edmunds Abbey,52.244221,United Kingdom,0,Europe,,,
GB,True,-0.3414524,"Guildford Palace, Surrey",51.2715316,United Kingdom,0,Europe,,,
GB,True,-0.6067923,"St George's Chapel, Windsor",51.4836506,United Kingdom,0,Europe,,,
GB,True,1.3739492,"Parham, Suffolk",52.1951933,United Kingdom,0,Europe,,,
GB,True,0.0971228,"Spilsby, Lincolnshire",53.1731896,United Kingdom,0,Europe,,,
GB,True,-2.6501745,Tantallon Castle,56.0565173,United Kingdom,0,Europe,,,
CA,True,-103.4187459,Abernethy,50.7461084,Canada,0,North America,,,
GB,True,-3.5795071,Methven,56.4156881,United Kingdom,0,Europe,,,
AU,True,115.8605784,"St John's Monastery, Perth",-31.9558967,Australia,0,Oceania,,,
GB,True,-2.1270083,Flodden,55.6102604,United Kingdom,0,Europe,,,
GB,True,-3.39916,Scone,56.4204776,United Kingdom,0,Europe,,,
GB,True,-0.0766986,"Tower Hill, London",51.5098481,United Kingdom,0,Europe,,,
GB,True,-1.205039,Quarr Abbey,50.7315258,United Kingdom,0,Europe,,,
GB,True,-0.0854519,"Austin Friars, London",51.5148988,United Kingdom,0,Europe,,,
GB,True,1.3415864,"Framlingham, Suffolk",52.2220579,United Kingdom,0,Europe,,,
GB,True,-0.127391,"Chapel of St Erasmus, Westminster Abbey",51.499399,United Kingdom,0,Europe,,,
GB,True,-0.6040419,Windsor,51.4837886,United Kingdom,0,Europe,,,
GB,True,-1.542541,"Astley, Warwickshire",52.5014196,United Kingdom,0,Europe,,,
GB,True,-0.0825463,"Bath Place, London",51.5263713,United Kingdom,0,Europe,,,
GB,True,-0.2273878,Bishop's Hatfield,51.7587179,United Kingdom,0,Europe,,,
CN,True,104.999927,Sheen,35.000074,China,0,Asia,,,
GB,True,-2.7188627,Brougham Castle,54.6539442,United Kingdom,0,Europe,,,
GB,True,-2.0160287,"Skipton, Yorkshire",53.9618497,United Kingdom,0,Europe,,,
GB,True,-0.2537791,"Cleveland Row, Middlesex",51.5460558,United Kingdom,0,Europe,,,
GB,True,-1.2191206,"Bradgate, Leicestershire",52.7896379,United Kingdom,0,Europe,,,
GB,True,-0.0766986,Tower Hill,51.5098481,United Kingdom,0,Europe,,,
GB,True,-2.0149439,Skipton Castle,53.96406,United Kingdom,0,Europe,,,
GB,True,-0.1277653,"St James's Garlickhithe, London",51.5074456,United Kingdom,0,Europe,,,
GB,True,-0.0294325,"Derby House, St Paul's Wharf, London",51.517578,United Kingdom,0,Europe,,,
GB,True,-0.4625248,"Colham Green, Middlesex",51.5256362,United Kingdom,0,Europe,,,
GB,True,-0.2537791,"Syon Monastery, Middlesex",51.5460558,United Kingdom,0,Europe,,,
GB,True,-2.8013191,Lathom House,54.0357403,United Kingdom,0,Europe,,,
GB,True,-2.8859603,Ormskirk,53.5673603,United Kingdom,0,Europe,,,
GB,True,-0.1265398,"Probably at Dorset House, Westminster",51.5004439,United Kingdom,0,Europe,,,
GB,True,1.5102568,"Cockfield Hall, Yoxford, Suffolk",52.268596,United Kingdom,0,Europe,,,
GB,True,1.5096724,Yoxford,52.2651979,United Kingdom,0,Europe,,,
GB,True,-1.348719,Netley,50.8760682,United Kingdom,0,Europe,,,
GB,True,-1.7972913,Salisbury Cathedral,51.0649545,United Kingdom,0,Europe,,,
GB,True,-3.9201681,Cambuskenneth,56.1251594,United Kingdom,0,Europe,,,
GB,True,-2.105274,Harbottle,55.335596,United Kingdom,0,Europe,,,
GB,True,-0.0493621,Hackney,51.5432402,United Kingdom,0,Europe,,,
GB,True,-3.1883749,Edinburgh,55.9533456,United Kingdom,0,Europe,,,
US,True,-98.4111777,Holyrood,38.5869549,United States,0,North America,,,
GB,True,-3.2004175,Edinburgh Castle,55.9486867,United Kingdom,0,Europe,,,
GB,True,-2.7955844,St Andrews,56.3403902,United Kingdom,0,Europe,,,
GB,True,-3.2079837,Falkland,56.2530979,United Kingdom,0,Europe,,,
GB,True,-0.865913,"Fotheringay Castle, Northamptonshire",52.3106138,United Kingdom,0,Europe,,,
GB,True,-0.2394889,Peterborough Cathedral,52.5724812,United Kingdom,0,Europe,,,
CH,True,6.1466014,Geneva,46.2017559,Switzerland,0,Europe,,,
GB,True,-0.117442,"Somerset House, London",51.5116948,United Kingdom,0,Europe,,,
GB,True,-0.8936203,"Grafton Regis, Northamptonshire",52.1142174,United Kingdom,0,Europe,,,
GB,True,-0.0984506,"St Paul's Cathedral, London",51.5137872,United Kingdom,0,Europe,,,
FR,True,2.3483915,"Probably the Hotel Cluny, Paris",48.8534951,France,0,Europe,,,
IT,True,12.1087907,Orvieto,42.7186152,Italy,0,Europe,,,
GB,True,-0.1265398,"St Stephen's Chapel, Westminster",51.5004439,United Kingdom,0,Europe,,,
CA,True,-81.285494,"Suffolk Place, London",42.9959246,Canada,0,North America,,,
GB,True,-2.693249,Kirkoswald,54.7648072,United Kingdom,0,Europe,,,
GB,True,-0.126325,"Royal Chapel, Whitehall",51.5047765,United Kingdom,0,Europe,,,
GB,True,-0.1254688,"Hertford House, Canon Row, Westminster",51.5013949,United Kingdom,0,Europe,,,
FR,True,2.3500626,"Ntre Dame Cathedral, Paris",48.8529312,France,0,Europe,,,
DK,True,10.3333283,"Upslo, Denmark",55.670249,Denmark,0,Europe,,,
GB,True,-0.1234273,"Durham House, London",51.5091059,United Kingdom,0,Europe,,,
,True,,Descendanst now live on the borders of Dera Ismail and Dera Ghzi Khn Districts in Baluchistn,,,0,,1767561641.2101827,,True
PK,True,71.75,Peshwar District,34.0,Pakistan,0,Asia,,,
IN,True,76.3639283,Buner,32.1201828,India,0,Asia,,,
,True,,Black Mountain and banks of Indus,,,0,,1767561644.3908038,,True
,True,,"Descendents live in the Mardan sudivision of Peshawar District and are known as Utmanzai, Usmanzai and Razzar",,,0,,1767561646.2592995,,True
MA,True,-5.539309,Extinct,32.2009878,Morocco,0,Africa,,,
PT,True,-8.2258389,Abt 2046 B.C.,39.3744227,Portugal,0,Europe,,,
PT,True,-8.1143326,Abt 1872 B.C.,39.4665754,Portugal,0,Europe,,,
,True,,"Abt 4000 B.C., Garden of Eden, Mortal Creation",,,0,,1767561672.0130107,,True
ML,True,-7.975971,"Abt 3070 B.C., East of Eden",12.6173258,Mali,0,Africa,,,
PT,True,-8.1976171,Abt 2342,39.4629232,Portugal,0,Europe,,,
CA,True,-125.002441,B.C.,55.001251,Canada,0,North America,,,
BO,True,-60.9553503,"Abt 3675, , B.C.",-16.3823043,Bolivia,0,South America,,,
CA,True,-119.5773712,"2765, , B.C.",49.5806202,Canada,0,North America,,,
PT,True,-8.1976171,Abt 2277,39.4629232,Portugal,0,Europe,,,
PT,True,-8.1976171,Abt 3378,39.4629232,Portugal,0,Europe,,,
CA,True,-120.7672584,"3013, , B.C.",50.098384,Canada,0,North America,,,
BO,True,-60.9553503,"Abt 3765, , B.C.",-16.3823043,Bolivia,0,South America,,,
CA,True,-120.3514268,"2860, , B.C.",50.7551738,Canada,0,North America,,,
GY,True,-58.1962988,"Abt 4000 B.C., Garden of Eden",6.6374891,Guyana,0,South America,,,
ML,True,-7.975971,East of Eden,12.6173258,Mali,0,Africa,,,
PT,True,-8.1976171,Abt 3540,39.4629232,Portugal,0,Europe,,,
NL,True,5.764584,"2578, , B.C.",52.0893976,Netherlands,0,Europe,,,
PT,True,-8.1976171,Abt 3126,39.4629232,Portugal,0,Europe,,,
CA,True,-122.4396671,"2349, , B.C.",52.9353604,Canada,0,North America,,,
BO,True,-60.9553503,"Abt 3605, , B.C.",-16.3823043,Bolivia,0,South America,,,
CA,True,-123.0695134,"2710, , B.C.",49.2603008,Canada,0,North America,,,
BO,True,-60.9553503,"Abt 3313, , B.C.",-16.3823043,Bolivia,0,South America,,,
NL,True,5.2844231,"2344, , B.C., B.C.",52.6983808,Netherlands,0,Europe,,,
BO,True,-60.9553503,"Abt 2152, , B.C.",-16.3823043,Bolivia,0,South America,,,
MX,True,-117.0374809,"2003, , B.C.",32.5242034,Mexico,0,North America,,,
BO,True,-60.9553503,"Abt 2944, , B.C.",-16.3823043,Bolivia,0,South America,,,
PT,True,-8.2258389,Abt 2244 B.C.,39.3744227,Portugal,0,Europe,,,
MX,True,-116.9708726,2004 B.C.,32.5311715,Mexico,0,North America,,,
CA,True,-116.223866,"2213, , B.C.",50.4688973,Canada,0,North America,,,
BO,True,-60.9553503,"Abt 2307, , B.C.",-16.3823043,Bolivia,0,South America,,,
MX,True,-96.854159,"2181, , B.C.",19.515224,Mexico,0,North America,,,
BO,True,-60.9553503,"Abt 3870, , B.C.",-16.3823043,Bolivia,0,South America,,,
CA,True,-123.4995258,"2978, , B.C.",48.4376071,Canada,0,North America,,,
BO,True,-60.9553503,"Abt 2442, , B.C.",-16.3823043,Bolivia,0,South America,,,
BO,True,-64.8994911,"Abt 2122, , B.C.",-14.827529,Bolivia,0,South America,,,
,True,,Kharashboon,,,0,,1767561712.2255232,,True
,True,,Probably in Carmarthen Castle,,,0,,1767561749.0687234,,True
,True,,"Alcal de Henares, near Madrid",,,0,,1767561751.1988676,,True
,True,,Stoke Neyland,,,0,,1767561751.7901235,,True
,True,,Rouen Cathedral,,,0,,1767561752.9440172,,True
,True,,"""Pasmer's Place"", St Sithes Lane",,,0,,1767561754.6807683,,True
,True,,Kinnoull Chapel,,,0,,1767561755.7210317,,True
,True,,Probably at Southwark,,,0,,1767561756.8306122,,True
,True,,Abbey Church of Holyrood,,,0,,1767561757.9110148,,True
FR,True,2.3881653,"Waikiki, O'ahu",48.8533189,France,0,Europe,,,
US,True,-155.9973598,"Kamakahonu, Kailua, Hawai'i",19.6389758,United States,0,North America,,,
FR,True,2.3881653,"Moanalua, O'ahu",48.8533189,France,0,Europe,,,
US,True,-158.125741,"Honolulu, O'ahu",21.3392955,United States,0,North America,,,
US,True,-155.2743388,Kilauea Crater,19.4331698,United States,0,North America,,,
US,True,-156.677678,"Lahaina, Maui",20.8738769,United States,0,North America,,,
US,True,-155.990752,"Ka'uiki, Hana, Maui",20.7671042,United States,0,North America,,,
US,True,-158.125741,"Manoa Valley, Honolulu, O'ahu",21.3392955,United States,0,North America,,,
FR,True,2.3881653,O'ahu,48.8533189,France,0,Europe,,,
US,True,-157.0482432,Moloka'i,21.1631647,United States,0,North America,,,
US,True,-73.644447,"Glens Falls, NY",43.309941,United States,0,North America,,,
US,True,-122.272863,"Berkeley, CA",37.8708393,United States,0,North America,,,
GB,True,-3.1883749,"Edinburgh, Scotland",55.9533456,Scotland,0,Europe,,,
FR,True,2.3881653,"'Ainahau, Waikiki, O'ahu",48.8533189,France,0,Europe,,,
US,True,-73.9395687,"Schenectady, NY",42.8142432,United States,0,North America,,,
US,True,-158.125741,"Washington Place, Honolulu, O'ahu",21.3392955,United States,0,North America,,,
US,True,-122.4075201,"San Francisco, CA",37.7879363,United States,0,North America,,,
MM,True,94.8623644,Pagan,21.1317111,Myanmar,0,Asia,,,
,True,,Gothia or Getulia (Libya),,,0,,1767562700.234867,,True
,True,,Abt. 129 Anno Mundi in Genesis 4:2,,,0,,1767562701.6563704,,True
IT,True,11.6134038,Judaism,44.8354649,Italy,0,Europe,,,
MY,True,101.0849202,Genesis 4:8,4.6429011,Malaysia,0,Asia,,,
BR,True,-46.8705898,Genesis 1:27,-23.437574,Brazil,0,South America,,,
,True,,931 Anno Mundi in Genesis 5:4,,,0,,1767562707.2994385,,True
,True,,King of Gothia or Getulia (Libya),,,0,,1767562707.494274,,True
,True,,"Caspian Sea, on board ship.",,,0,,1767562711.4989667,,True
ES,True,-7.863112,"Galicia, Spain",42.61946,Spain,0,Europe,,,
IE,True,-7.9794599,Ireland,52.865196,Ireland,0,Europe,,,
EG,True,29.2675469,Egypt,26.2540493,Egypt,0,Africa,,,
,True,,King of Scythia,,,0,,1767562714.6909077,,True
,True,,Scythia (Cental Europe),,,0,,1767562715.6831336,,True
ES,True,-5.9738573,"King of Galicia, Andalusia, Murcia, Castile, and Portugal",42.4910891,Spain,0,Europe,,,
ES,True,-4.8379791,"Gallicia, Spain",39.3260685,Spain,0,Europe,,,
,True,,Abt. 127 Anno Mundi in Genesis 4:1,,,0,,1767562723.0848544,,True
,True,,326 Anno Mundi in Genesis 5:9,,,0,,1767562724.1159818,,True
,True,,1236 Anno Mundi in Genesis 5:14,,,0,,1767562725.0111487,,True
,True,,623 Anno Mundi in Genesis 5:18,,,0,,1767562726.2271276,,True
,True,,988 Anno Mundi in Genesis 5:24,,,0,,1767562727.1519215,,True
,True,,236 Anno Mundi in Genesis 4:26,,,0,,1767562728.1885242,,True
,True,,1141 Anno Mundi in Genesis 5:8,,,0,,1767562729.1936457,,True
BR,True,-46.8658714,Genesis 2:22,-23.4434502,Brazil,0,South America,,,
MY,True,101.0849202,Genesis 10:2,4.6429011,Malaysia,0,Asia,,,
MY,True,101.0849202,Genesis 5:32,4.6429011,Malaysia,0,Asia,,,
GB,True,-0.1375768,King of Ireland,51.5189784,United Kingdom,0,Europe,,,
,True,,1698 BC in Ireland,,,0,,1767562735.0312033,,True
,True,,Scythia (Central Europe),,,0,,1767562736.5882936,,True
,True,,King of Ireland 1699BC to 1683BC,,,0,,1767562736.7220857,,True
IE,True,-6.2626992,1683BC in Ireland,53.3391564,Ireland,0,Europe,,,
ES,True,-4.8379791,Spain,39.3260685,Spain,0,Europe,,,
US,True,-95.7794391,Soldier,41.9850229,United States,0,North America,,,
ZA,True,18.6113162,Envoy,-34.0633473,South Africa,0,Africa,,,
IE,True,-7.599543,"Magh Ithe, Plain of Ithe, Raphoe, Donegal, Ireland",54.8735295,Ireland,0,Europe,,,
,True,,1557 Anno Mundi in Genesis 5:32,,,0,,1767562745.2282329,,True
,True,,461 Anno Mundi in Genesis 5:15,,,0,,1767562746.223457,,True
,True,,1423 Anno Mundi in Genesis 5:20,,,0,,1767562747.2575727,,True
,True,,875 Anno Mundi in Genesis 5:25,,,0,,1767562748.255602,,True
,True,,1652 Anno Mundi in Genesis 5:31,,,0,,1767562749.3085835,,True
,True,,396 Anno Mundi in Genesis 5:12,,,0,,1767562750.4791253,,True
,True,,1291 Anno Mundi in Genesis 5:17,,,0,,1767562751.2049198,,True
,True,,688 Anno Mundi in Genesis 5:21,,,0,,1767562752.4078374,,True
,True,,1657 Anno Mundi in Genesis 5:27,,,0,,1767562753.226549,,True
EG,True,34.0930512,"Campus Cyrunt, Red Sea",25.5664162,Egypt,0,Africa,,,
,True,,1057 Anno Mundi in Genesis 5:28,,,0,,1767562756.1375515,,True
,True,,2007 Anno Mundi in Genesis 9:28,,,0,,1767562757.1223917,,True
,True,,131 Anno Mundi in Genesis 4:2,,,0,,1767562758.123329,,True
,True,,1043 Anno Mundi in Genesis 5:8,,,0,,1767562759.0678039,,True
MY,True,101.0849202,Genesis 11:11,4.6429011,Malaysia,0,Asia,,,
GR,True,24.4633423,Crete,35.3084952,Greece,0,Europe,,,
IN,True,77.3582553,Saint,27.370281,India,0,Asia,,,
,True,,Dal Riada in Scotland,,,0,,1767562762.9313805,,True
,True,,King of Ireland 123 to 157,,,0,,1767562765.4646044,,True
,True,,King of Ireland 1427BC to 1409BC,,,0,,1767562765.589476,,True
IE,True,-7.9794599,"1409BC in Battle of Carman, Ireland",52.865196,Ireland,0,Europe,,,
,True,,King of Ireland 591BC to 541BC,,,0,,1767562769.016553,,True
,True,,541BC in Ireland,,,0,,1767562770.087932,,True
,True,,King of Ireland 747BC to 737BC,,,0,,1767562771.0966794,,True
,True,,737BC in Ireland,,,0,,1767562772.1481955,,True
,True,,King of Ireland 1670BC to 1650BC,,,0,,1767562773.1035123,,True
IE,True,-6.9918183,"1650 BC in Soirrean, Leinster, Ireland",53.118465,Ireland,0,Europe,,,
,True,,King of Ireland 1472BC to 1448BC,,,0,,1767562776.3173873,,True
IE,True,-7.9794599,"1448BC in Bealgadain, Ireland",52.865196,Ireland,0,Europe,,,
,True,,King of Ireland 805BC to 795BC,,,0,,1767562779.1315403,,True
,True,,795BC in Ireland,,,0,,1767562780.1413653,,True
,True,,King of Ireland 1022BC to 1013BC,,,0,,1767562781.1154397,,True
IE,True,-7.9794599,"1013BC in Moighe Muadh, Ireland",52.865196,Ireland,0,Europe,,,
IE,True,-7.9794599,"1670 BC in Magh Muagh, Ireland",52.865196,Ireland,0,Europe,,,
,True,,King of Ireland 1680BC to 1670BC,,,0,,1767562786.6517293,,True
,True,,1670 BC in Ireland,,,0,,1767562788.8449833,,True
,True,,King of Ireland 1683BC to 1680BC,,,0,,1767562788.964765,,True
,True,,1680 BC in Ireland,,,0,,1767562790.9980574,,True
IE,True,-7.9794599,"1680 BC in Cruachan, near Elphin, Ireland",52.865196,Ireland,0,Europe,,,
,True,,King of Ireland 893BC to 892BC,,,0,,1767562794.1451783,,True
,True,,892BC in Ireland,,,0,,1767562795.131463,,True
,True,,King of Ireland 1001BC to 961BC,,,0,,1767562796.13466,,True
,True,,961BC in Ireland,,,0,,1767562797.1346564,,True
,True,,King of Ireland 1382BC to 1357BC,,,0,,1767562798.2116573,,True
IE,True,-6.2626992,1357BC in Ireland,53.3391564,Ireland,0,Europe,,,
,True,,King of Ireland 909BC to 903BC,,,0,,1767562800.12339,,True
,True,,903BC in Ireland,,,0,,1767562801.142853,,True
,True,,King of Ireland 1180BC to 1030BC,,,0,,1767562802.1421711,,True
IE,True,-7.9794599,"1030 BC in Aillin, Ireland",52.865196,Ireland,0,Europe,,,
,True,,King of Ireland 1620BC to 1543BC,,,0,,1767562805.1433146,,True
IE,True,-7.8653154,"1543BC in Magh Sleaght, now Fenagh, Mohill, Leitrim, Ireland",53.9217979,Ireland,0,Europe,,,
,True,,King of Ireland 633BC to 593BC,,,0,,1767562809.1347575,,True
,True,,593BC in Ireland,,,0,,1767562810.1439,,True
IE,True,-6.2471783,"East Leinster, Ireland",53.3383826,Ireland,0,Europe,,,
,True,,General of the Fenians of Ireland,,,0,,1767562812.771053,,True
,True,,642AU in Ireland,,,0,,1767562813.337177,,True
,True,,King of Ireland 498BC to 480BC,,,0,,1767562814.1570115,,True
,True,,480BC in Ireland,,,0,,1767562815.1363854,,True
,True,,King of Ireland 119 to 123,,,0,,1767562817.5099247,,True
,True,,Gu. a lion pass. ar.  Crest: A boar pass. ppr. Motto: Virtute et Fidelitate,,,0,,1767562817.6751626,,True
,True,,King of Ireland 8BC to 7BC,,,0,,1767562818.914804,,True
,True,,7BC in Ireland,,,0,,1767562820.1393445,,True
,True,,King of Ireland 292BC to 288BC,,,0,,1767562820.6434622,,True
,True,,288BC in Ireland,,,0,,1767562821.6341584,,True
IE,True,-7.9014617,King of Leinster,53.0759412,Ireland,0,Europe,,,
,True,,King of Ireland 397BC to 384BC,,,0,,1767562823.6403675,,True
,True,,384BC in Ireland,,,0,,1767562824.637545,,True
,True,,King of Ireland 541BC to 522BC,,,0,,1767562825.649277,,True
,True,,522 BC in Ireland,,,0,,1767562828.430641,,True
,True,,King of Ireland 593BC to 591BC,,,0,,1767562828.6024797,,True
,True,,Ar. on a mount in base vert an oak tree acorned ppr.,,,0,,1767562829.5674653,,True
,True,,591BC in Ireland,,,0,,1767562830.693423,,True
,True,,King of Ireland 110BC to 109BC,,,0,,1767562831.5554776,,True
,True,,109BC in Ireland,,,0,,1767562832.556246,,True
IE,True,-9.5174011,"County Kerry, Ireland",52.1453345,Ireland,0,Europe,,,
,True,,On board ship from Spain to Ireland.,,,0,,1767562835.1210756,,True
,True,,"Schloss Rosenau,Near Coburg",,,0,,1767562988.9433675,,True
,True,,Kensington Palac,,,0,,1767562990.1308188,,True
,True,,Pelesch,,,0,,1767562990.6389823,,True
,True,,"Marche-les-Dames,Near Namur",,,0,,1767562992.7923338,,True
,True,,"Chateau de,Dampiere,Near Saumur",,,0,,1767562995.7608566,,True
,True,,"Schloss Rahr,Near Aachen",,,0,,1767562997.8116603,,True
,True,,Fontevraud Abbey,,,0,,1767562998.6340137,,True
,True,,"St Denis-le-,Fermont,Near Gisors",,,0,,1767563001.6067963,,True
,True,,St Austrebert,,,0,,1767563002.5654953,,True
,True,,Bolongne,,,0,,1767563003.584405,,True
,True,,Marcerata,,,0,,1767563004.5652068,,True
,True,,Holyrod Abbey,,,0,,1767563005.677351,,True
,True,,Ni jmegen,,,0,,1767563006.5650835,,True
,True,,Marlebridge,,,0,,1767563007.5653462,,True
,True,,"Saille,Near Guerrand",,,0,,1767563009.594597,,True
AR,True,-58.430329,Before 0386 BC,-34.6272674,Argentina,0,South America,,,
,True,,0358 BC,,,0,,1767563110.2701006,,True
CA,True,-125.002441,BC,55.001251,Canada,0,North America,,,
,True,,0430 BC,,,0,,1767563119.586097,,True
AR,True,-58.430329,Before 0339 BC,-34.6272674,Argentina,0,South America,,,
CA,True,-123.128767,0300 BC,49.2848699,Canada,0,North America,,,
PT,True,-8.1143326,Abt. 655 B.C.,39.4665754,Portugal,0,Europe,,,
TR,True,32.0,"About 1230 BC in Troy, Asia Minor",39.0,Turkey,0,Asia,,,
AR,True,-58.430329,Before 0358 BC,-34.6272674,Argentina,0,South America,,,
SN,True,-16.279584,0339 BC,12.5665352,Senegal,0,Africa,,,
TR,True,32.0,"1225 BC - Troy, Troad, Phrygia, Asia Minor",39.0,Turkey,0,Asia,,,
RU,True,58.0,Southern Russia,54.0,Russia,0,Europe,,,
TR,True,32.0,"1315 BC - Dardania, Troad, Phrygia, Asia Minor",39.0,Turkey,0,Asia,,,
TR,True,32.0,"Troy, Troad, Phrygia, Asia Minor",39.0,Turkey,0,Asia,,,
TR,True,32.0,"1285 BC - Troy, Troad, Phrygia, Asia Minor",39.0,Turkey,0,Asia,,,
TR,True,32.0,"1235 BC - Troy, Troad, Phrygia, Asia Minor",39.0,Turkey,0,Asia,,,
,True,,Abt 695 B.C.  Ancient Greece,,,0,,1767563155.1906214,,True
AR,True,-58.430329,Before 0430 BC,-34.6272674,Argentina,0,South America,,,
SN,True,-16.279584,0412 BC,12.5665352,Senegal,0,Africa,,,
PT,True,-8.1976171,Abt. 1183 BC,39.4629232,Portugal,0,Europe,,,
PT,True,-8.1143326,Abt 535 B.C.,39.4665754,Portugal,0,Europe,,,
TR,True,32.0,"1255 BC - Troy, Troad, Phrygia, Asia Minor",39.0,Turkey,0,Asia,,,
TR,True,32.0,"1183 BC - Troy, Troad, Phrygia, Asia Minor",39.0,Turkey,0,Asia,,,
TR,True,29.1071627,"About 1230 BC in Troy, Dardania, Phrygia, Turkey",37.8366789,Trkiye,0,Asia,,,
CA,True,-124.8792707,After 1185 BC,51.7022484,Canada,0,North America,,,
,True,,Abt. 735 B.C.Ancient Greece,,,0,,1767563174.1693878,,True
PT,True,-8.1143326,Abt 615 B.C.,39.4665754,Portugal,0,Europe,,,
PT,True,-8.2258389,Abt 575 B.C.,39.3744227,Portugal,0,Europe,,,
PT,True,-8.2258389,Abt 1302 B.C.,39.3744227,Portugal,0,Europe,,,
PT,True,-8.1143326,Abt 1303 B.C.,39.4665754,Portugal,0,Europe,,,
SB,True,160.9496567,Aft 1237 BC,-9.190964,Solomon Islands,0,Oceania,,,
TR,True,32.0,"1344 BC - Dardania, Phrygia, Asia Minor",39.0,Turkey,0,Asia,,,
TR,True,32.0,"1328 BC - Dardania, Troad, Phrygia, Asia Minor",39.0,Turkey,0,Asia,,,
,True,,195 BC,,,0,,1767563459.416647,,True
DK,True,12.5741509,1466,55.6767932,Denmark,1,Europe,,,
